,images_thumbnail,title,address,item_id,보증금,월세,평,건물층,층,lat,lng,reg_date,sales_type,관리비
0,https://ic.zigbang.com/ic/items/38805973/1.jpg,"••인계박스 넓고 이쁜 1.5룸 방1개, 거실1••",경기도 수원시 팔달구 인계동,38805973,1000,74,11,9,중,37.265382265898346,127.03134816546745,2023-11-27T10:28:48+09:00,월세,7.5
1,https://ic.zigbang.com/ic/items/38806416/1.jpg,Oo 보증보험가입 베란다분리형일점오룸 순삭예정 oO,경기도 수원시 팔달구 인계동,38806416,1000,71,13,9,고,37.26539480881706,127.03067745901552,2023-11-22T13:38:24+09:00,월세,10
2,https://ic.zigbang.com/ic/items/38831244/1.jpg,ㅁ거실따로 방따로 ㅁ드레스룸 ㅁ발코니 ㅁ대형1.5룸,경기도 수원시 팔달구 인계동,38831244,1000,74,14.3,9,중,37.26538635939981,127.03068575687274,2023-11-24T12:53:35+09:00,월세,7.5
3,https://ic.zigbang.com/ic/items/38831231/1.jpg,"초역세권, 생활권 최고, 전세대출, 보증보험 가능",경기도 수원시 팔달구 인계동,38831231,21000,0,46.1,15,4,37.26538036290497,127.0341554732479,2023-11-24T12:52:43+09:00,전세,20
4,https://ic.zigbang.com/ic/items/38831240/1.jpg,"로얄층, 생활권 최고, 융자무, 전세대출, 보증보험 ok",경기도 수원시 팔달구 인계동,38831240,20000,0,46.1,15,14,37.26541025186005,127.03349628178863,2023-11-24T12:53:24+09:00,전세,20
5,https://ic.zigbang.com/ic/items/38837121/1.jpg,"남향, 전망트임, 버팀목가능, 보험가능",경기도 수원시 팔달구 인계동,38837121,20000,0,33,15,14,37.26589136384987,127.03414505002387,2023-11-24T17:53:58+09:00,전세,18
6,https://ic.zigbang.com/ic/items/38737927/1.jpg,무융자 넓은2룸 주차편리 인계동,경기도 수원시 팔달구 인계동,38737927,14000,0,12,6,4,37.26594843632616,127.02268370826346,2023-11-16T16:49:40+09:00,전세,10
7,https://ic.zigbang.com/ic/items/38830378/1.jpg,..보증보험OK.풀옵2룸..,경기도 수원시 팔달구 인계동,38830378,10000,18,12,5,4,37.265444242661964,127.02265424613465,2023-11-24T12:03:37+09:00,월세,8
8,https://ic.zigbang.com/ic/items/38829235/1.jpg,실매물. 복층끝판王.채광GOOD.완전넓은구조,경기도 수원시 팔달구 인계동,38829235,200,70,14,8,8,37.266001521469896,127.02854462979896,2023-11-24T11:14:57+09:00,월세,15
9,https://ic.zigbang.com/ic/items/38602834/1.jpg,oO청춘Oo 역세권bb 인계동 박스bbb 복층bb,경기도 수원시 팔달구 인계동,38602834,300,75,10,8,8,37.26598367377221,127.02850675626416,2023-11-04T14:17:45+09:00,월세,15
10,https://ic.zigbang.com/ic/items/38753231/1.jpg,oO청춘Oo수원시청역.최고급.분리형,경기도 수원시 팔달구 인계동,38753231,300,48,6,8,6,37.26597030293906,127.02854985902083,2023-11-22T11:23:30+09:00,월세,15
11,https://ic.zigbang.com/ic/items/38829204/1.jpg,ㆅ복층ㆅ단기ㆅ여기뿐ㆅ시청역ㆅ,경기도 수원시 팔달구 인계동,38829204,200,70,10,8,8,37.26546474179169,127.02791013990922,2023-11-24T11:13:45+09:00,월세,15
12,https://ic.zigbang.com/ic/items/38850246/1.jpg,oVoㅣ복층 로망ㅣ여㉠i서ㅣ㉧i루다ㅣoVo,경기도 수원시 팔달구 인계동,38850246,200,70,10,8,8,37.265970192284776,127.02854281230434,2023-11-26T18:19:32+09:00,월세,15
13,https://ic.zigbang.com/ic/items/38394745/1.jpg,....단기단기단기....여기,경기도 수원시 팔달구 인계동,38394745,200,50,7,8,3,37.265961964275554,127.02789106641119,2023-10-28T10:41:16+09:00,월세,15
14,https://ic.zigbang.com/ic/items/38807090/1.jpg,II WOW II  단기 매물 1초컷,경기도 수원시 팔달구 인계동,38807090,200,70,9,8,8,37.265467055307525,127.02791534178323,2023-11-22T14:10:46+09:00,월세,15
15,https://ic.zigbang.com/ic/items/38807148/1.jpg,II 빨리요 단기가능  II 신축급복층 II,경기도 수원시 팔달구 인계동,38807148,200,70,9,8,8,37.26600092140513,127.02853233317722,2023-11-22T14:16:28+09:00,월세,15
16,https://ic.zigbang.com/ic/items/38834015/1.jpg,V 금 V 액 V 내 V 렸 V 다 V,경기도 수원시 팔달구 인계동,38834015,200,70,10,8,8,37.26548627013499,127.02852035463484,2023-11-24T15:19:57+09:00,월세,15
17,https://ic.zigbang.com/ic/items/38383922/1.jpg,o초저렴 분리형원룸o최우선변제가능o시청역5분,경기도 수원시 팔달구 인계동,38383922,1000,70,10,8,4,37.26556949033176,127.02816267148262,2023-11-07T11:38:48+09:00,월세,9
18,https://ic.zigbang.com/ic/items/38540829/1.jpg,••인계박스 최상컨디션••귀한월세••빠른입주가능,경기도 수원시 팔달구 인계동,38540829,1000,55,7,8,4,37.26606050715128,127.02817285265625,2023-11-27T10:26:45+09:00,월세,9
19,https://ic.zigbang.com/ic/items/38588136/1.jpg,o빠른입주가능o신축급1.5룸o완전풀옵션,경기도 수원시 팔달구 인계동,38588136,6000,25,7,8,6,37.26606938680193,127.02753212673335,2023-11-06T11:52:29+09:00,월세,9
20,https://ic.zigbang.com/ic/items/38839885/1.jpg,十신축급十초역세권十조정가능十,경기도 수원시 팔달구 인계동,38839885,500,65,7.5,8,7,37.26603120860235,127.02758236089966,2023-11-25T10:22:52+09:00,월세,9
21,https://ic.zigbang.com/ic/items/38828422/1.jpg,베란다있음 가격좋은투룸 빠른입주가능,경기도 수원시 팔달구 인계동,38828422,500,65,10,4,4,37.265588204538396,127.02398338128286,2023-11-24T10:41:52+09:00,월세,0
22,https://ic.zigbang.com/ic/items/38835975/1.jpg,o0청춘o0 두.두.둥.장,경기도 수원시 팔달구 인계동,38835975,300,70,9,8,4,37.265554357792475,127.02812191648837,2023-11-24T16:55:12+09:00,월세,9
23,https://ic.zigbang.com/ic/items/38716144/1.jpg,ㅁ발코니OK ㅁ즉시입주 ㅁ풀옵션1.5룸 ㅁ컨디션최상,경기도 수원시 팔달구 인계동,38716144,500,65,6,8,7,37.266087140723194,127.02743112771356,2023-11-20T11:52:51+09:00,월세,9
24,https://ic.zigbang.com/ic/items/38773099/1.jpg,실매물. 붙박이장多.거실十방十베란다,경기도 수원시 팔달구 인계동,38773099,500,65,5.8,8,7,37.266056383485534,127.02741902209948,2023-11-20T10:54:40+09:00,월세,9
25,https://ic.zigbang.com/ic/items/38782012/1.jpg,v방1거실1풀옵션.시청역초역세권.5년차신축v,경기도 수원시 팔달구 인계동,38782012,500,65,8,8,7,37.266085023875064,127.02803616378438,2023-11-20T16:21:53+09:00,월세,9
26,https://ic.zigbang.com/ic/items/38783265/1.jpg,o0청춘0oㅡ인계박스ㅡ최저가ㅡ도전,경기도 수원시 팔달구 인계동,38783265,500,65,9,8,7,37.26609690851363,127.02741330386253,2023-11-21T11:08:51+09:00,월세,9
27,https://ic.zigbang.com/ic/items/38823774/1.jpg,ㆀ시청역ㆀ예쁜집ㆀbox안ㆀ최저가ㆀ,경기도 수원시 팔달구 인계동,38823774,500,65,8,8,7,37.26559552360337,127.02805006986655,2023-11-25T13:26:27+09:00,월세,9
28,https://ic.zigbang.com/ic/items/38823918/1.jpg,oO청춘Oo ㅣ너.로.정.했.다ㅣ시청역세권ㅣ수납대박ㅣ,경기도 수원시 팔달구 인계동,38823918,300,70,7,8,7,37.26558901392502,127.02743072490222,2023-11-23T17:32:32+09:00,월세,9
29,https://ic.zigbang.com/ic/items/38836163/1.jpg,Ss..선착순..sS..1명만..vV,경기도 수원시 팔달구 인계동,38836163,300,70,8,8,7,37.26560375,127.02805053773263,2023-11-24T17:03:26+09:00,월세,9
30,https://ic.zigbang.com/ic/items/38843691/1.jpg,ㅣ시청역1등ㅣ풀옵션ㅣ베란다OKㅣ,경기도 수원시 팔달구 인계동,38843691,300,70,7.5,8,7,37.26559977897357,127.0280474847999,2023-11-25T14:13:55+09:00,월세,9
31,https://ic.zigbang.com/ic/items/38783459/1.jpg,밝은방 베란다있음,경기도 수원시 팔달구 매산로3가,38783459,7000,0,8.7,5,3,37.26562336268503,127.0078826343244,2023-11-20T17:19:37+09:00,전세,3
32,https://ic.zigbang.com/ic/items/38792632/1.jpg,인계동박스 풀옵션  큰원룸. 임대보증보험가입. 주차 가능,경기도 수원시 팔달구 인계동,38792632,13750,0,12,8,고,37.266191494964275,127.02803685831903,2023-11-22T12:26:48+09:00,전세,12
33,https://ic.zigbang.com/ic/items/38798730/1.jpg,1.보증보험 가입 필수 2.전세대출 3.버팀목중기청,경기도 수원시 팔달구 인계동,38798730,13000,0,15.8,8,고,37.265723860883526,127.0286550481064,2023-11-21T18:06:30+09:00,전세,10
34,https://ic.zigbang.com/ic/items/38854339/1.jpg,AN654관리가진짜잘된원룸.수원역7분.주차가능.재래시장인근,경기도 수원시 팔달구 매산로2가,38854339,500,40,7.4,4,2,37.265736034452146,127.0058697216172,2023-11-27T11:14:30+09:00,월세,7
35,https://ic.zigbang.com/ic/items/38715127/1.jpg,안심보증금 완전분리1.5룸 풀옵션 즉시입주,경기도 수원시 팔달구 인계동,38715127,2700,51,6.9,6,3,37.26628153785805,127.0292391711149,2023-11-24T12:47:58+09:00,월세,10
36,https://ic.zigbang.com/ic/items/38834352/1.jpg,분리1.5룸.보증보험O.전세대출O.최우선변제.역세권,경기도 수원시 팔달구 인계동,38834352,2700,51,5.6,6,3,37.26576701771846,127.02985952223845,2023-11-24T15:34:33+09:00,월세,10
37,https://ic.zigbang.com/ic/items/38820520/1.jpg,실매물.  거실十방 . 풀옵션 . 초역세권,경기도 수원시 팔달구 인계동,38820520,2700,50,5.6,6,3,37.26627024565794,127.02988013098819,2023-11-23T14:49:59+09:00,월세,10
38,https://ic.zigbang.com/ic/items/37597137/1.jpg,인계동 신축  완전 풀옵션 넓은 원룸이예요,경기도 수원시 팔달구 인계동,37597137,500,52,10,5,2,37.26638841,127.0236300882159,2023-11-14T10:52:03+09:00,월세,9
39,https://ic.zigbang.com/ic/items/38725510/1.jpg,수원시청역세권.풀옵션 중문 원룸.베란다.,경기도 수원시 팔달구 인계동,38725510,3000,45,9,10,6,37.26589087853203,127.03158673375448,2023-11-15T13:50:26+09:00,월세,15
40,https://ic.zigbang.com/ic/items/38784724/1.jpg,빠른입주가능.수원시청역세권.준신축.풀옵션1.5룸,경기도 수원시 팔달구 인계동,38784724,3000,45,9,9,8,37.265888849929254,127.03098170611408,2023-11-20T18:18:21+09:00,월세,15
41,https://ic.zigbang.com/ic/items/38784793/1.jpg,즉시입주가능.수원시청역세권.풀옵션.1.5중문.베란다있음,경기도 수원시 팔달구 인계동,38784793,8000,0,9,8,8,37.26590046689465,127.03099968243812,2023-11-22T21:07:19+09:00,전세,15
42,https://ic.zigbang.com/ic/items/38851274/1.jpg,"실매물. 초역세권.넓은1,5룸.신축급컨디션",경기도 수원시 팔달구 인계동,38851274,3000,40,10,10,5,37.266402498474456,127.0309581246934,2023-11-27T09:25:08+09:00,월세,15
43,https://ic.zigbang.com/ic/items/38570641/1.jpg,"수원시청역세권,도보7분.1.5룸.풀옵션.베란다유",경기도 수원시 팔달구 인계동,38570641,3000,45,9,9,6,37.26640022482877,127.0315928393151,2023-11-25T15:24:30+09:00,월세,15
44,https://ic.zigbang.com/ic/items/38188927/1.jpg,Vv시청역역세권.리모델링원룸.즉시입주OK,경기도 수원시 팔달구 인계동,38188927,500,41,8.4,5,3,37.26599655250092,127.02814438794815,2023-11-23T11:29:24+09:00,월세,6
45,https://ic.zigbang.com/ic/items/38806514/1.jpg,十최저가 시청역十 신축급 원룸 十,경기도 수원시 팔달구 인계동,38806514,500,41,7,5,3,37.26648859681435,127.02815569307552,2023-11-22T13:42:47+09:00,월세,6
46,https://ic.zigbang.com/ic/items/38851271/1.jpg,실매물.  풀옵션.초역세권.즉시입주OK,경기도 수원시 팔달구 인계동,38851271,500,41,8.4,5,3,37.266487000299215,127.02814824568067,2023-11-27T09:24:45+09:00,월세,6
47,https://ic.zigbang.com/ic/items/38794877/1.jpg,"인계동 가성비SSS급,혼자사는분",경기도 수원시 팔달구 인계동,38794877,500,41,7,5,3,37.265998239352555,127.02812555097613,2023-11-21T15:17:02+09:00,월세,6
48,https://ic.zigbang.com/ic/items/38677010/1.jpg,청춘ㅿㅿ시청역도보1분ㅿㅿ최저가ㅿㅿ,경기도 수원시 팔달구 인계동,38677010,500,42,7,7,4,37.266131194215404,127.02761444516491,2023-11-10T18:00:50+09:00,월세,7
49,https://ic.zigbang.com/ic/items/38810754/1.jpg,oO청춘Oo 인계박스 인ㅇ기ㅇ매ㅇ물 놓치면 아까움,경기도 수원시 팔달구 인계동,38810754,500,44,6.5,7,6,37.266147440198665,127.02759781810428,2023-11-22T16:58:38+09:00,월세,7
50,https://ic.zigbang.com/ic/items/38839838/1.jpg,II 시청역 II 정남향 II 선착순매물 II,경기도 수원시 팔달구 인계동,38839838,500,47,5.1,7,6,37.26661124292072,127.02762138013199,2023-11-25T10:19:58+09:00,월세,7
51,https://ic.zigbang.com/ic/items/38841927/1.jpg,IIwowII 진짜 빨리나가요 제발 ㅜㅜ,경기도 수원시 팔달구 인계동,38841927,500,47,5.1,7,6,37.26664093310046,127.02762079966091,2023-11-25T12:14:54+09:00,월세,7
52,https://ic.zigbang.com/ic/items/38821217/1.jpg,oVoㆍ신ㆍ축ㆍ감ㆍ성ㆍ폭ㆍ발ㆍoVo,경기도 수원시 팔달구 인계동,38821217,500,69,7,8,4,37.26665582,127.03026591031339,2023-11-23T15:26:23+09:00,월세,9
53,https://ic.zigbang.com/ic/items/38821732/1.jpg,oVo 신.축.급 oVo 풀.옵.션 oVo,경기도 수원시 팔달구 인계동,38821732,500,69,8,8,7,37.26617566794165,127.03024204345121,2023-11-23T15:49:27+09:00,월세,9
54,https://ic.zigbang.com/ic/items/38850111/1.jpg,v청춘v초특급v나와따v,경기도 수원시 팔달구 인계동,38850111,500,59,8,7,6,37.266143671694714,127.03023910475481,2023-11-26T17:31:44+09:00,월세,9
55,https://ic.zigbang.com/ic/items/38589608/1.jpg,oO청춘Oo 역세권bb 인계동 박스bb,경기도 수원시 팔달구 인계동,38589608,500,69,8,8,3,37.26667960603419,127.03028223097358,2023-11-03T12:47:17+09:00,월세,9
56,https://ic.zigbang.com/ic/items/38630010/1.jpg,박스안입주빠른 최저가풀옵션 넓은원룸가성비,경기도 수원시 팔달구 인계동,38630010,1000,62,8,8,2,37.26666543477883,127.03086740370263,2023-11-07T11:36:12+09:00,월세,9
57,https://ic.zigbang.com/ic/items/38675303/1.jpg,ㅡ수원시청역ㅡ인계동.중심지.인근ㅡ신축급ㅡ초.저.가ㅡ,경기도 수원시 팔달구 인계동,38675303,1000,60,7.3,8,7,37.26665580780914,127.03025473723253,2023-11-21T17:12:34+09:00,월세,14
58,https://ic.zigbang.com/ic/items/38677005/1.jpg,o0청춘0o.ㅡ㉤6달단기ok㉤화이트톤㉤풀옵션㉤ㅡ.,경기도 수원시 팔달구 인계동,38677005,500,69,8,6,5,37.266681692091474,127.03087514502765,2023-11-10T18:00:37+09:00,월세,9
59,https://ic.zigbang.com/ic/items/38697783/1.jpg,깔끔한 인테리어十건물관리 잘되는 인계동 역세권 원룸,경기도 수원시 팔달구 인계동,38697783,1000,65,8,8,7,37.26666109081832,127.03085932381983,2023-11-13T13:40:54+09:00,월세,9
60,https://ic.zigbang.com/ic/items/38762599/1.jpg,o0청춘0oㅣ역ㅣ세ㅣ권ㅣ풀ㅣ옵ㅣ션ㅣ,경기도 수원시 팔달구 인계동,38762599,500,69,10,8,6,37.26666749563441,127.03084983661016,2023-11-18T14:17:48+09:00,월세,9
61,https://ic.zigbang.com/ic/items/38796777/1.jpg,ㅁ위치최상 ㅁ분리형1.5룸 ㅁ빌트인풀옵션 ㅁ즉시입주,경기도 수원시 팔달구 인계동,38796777,1000,65,7.3,8,7,37.26618061800273,127.03087566350408,2023-11-21T16:41:55+09:00,월세,9
62,https://ic.zigbang.com/ic/items/38762017/1.jpg,ooWOWoo 중문분리형 인기방,경기도 수원시 팔달구 인계동,38762017,500,69,7.3,8,2,37.266667618809834,127.03089680504337,2023-11-18T13:41:15+09:00,월세,9
63,https://ic.zigbang.com/ic/items/38779011/1.jpg,즉시입주 가능한 역세권 풀옵션 원룸,경기도 수원시 팔달구 인계동,38779011,500,69,7,8,2,37.26616991336905,127.03087563553133,2023-11-20T14:21:04+09:00,월세,9
64,https://ic.zigbang.com/ic/items/38779116/1.jpg,인계동박스 수원시청역 도보 풀옵션원룸 빠른입주,경기도 수원시 팔달구 인계동,38779116,1000,65,7,8,4,37.26664720946028,127.03090230888313,2023-11-20T14:25:08+09:00,월세,9
65,https://ic.zigbang.com/ic/items/38793687/1.jpg,ll수원역 도보5분ll깨끗한분리형원룸ll,경기도 수원시 팔달구 매산로2가,38793687,4000,0,5,6,6,37.26666626693572,127.00541201326476,2023-11-22T17:51:37+09:00,전세,6
66,https://ic.zigbang.com/ic/items/38858163/1.jpg,"대형투룸, 신축풀옵션, 2인거주",경기도 수원시 팔달구 인계동,38858163,2000,105,13.6,12,5,37.26669293401772,127.02900054527946,2023-11-27T13:35:18+09:00,월세,15
67,https://ic.zigbang.com/ic/items/38647360/1.jpg,"귀한 신축 투룸, 첫입주,  주차 좋음",경기도 수원시 팔달구 인계동,38647360,3000,115,33.4,12,5,37.26621880729216,127.02899178986316,2023-11-08T14:30:59+09:00,월세,15
68,https://ic.zigbang.com/ic/items/38848448/1.jpg,Luxury ll 투룸 ll 첫입주 최우선변제 ll오피스텔,경기도 수원시 팔달구 인계동,38848448,2000,105,33.4,12,5,37.266225789799584,127.0289572816549,2023-11-26T11:46:12+09:00,월세,15
69,https://ic.zigbang.com/ic/items/38856173/1.jpg,"시청역도보7분,신축첫입주,무료주차,인테리어굿,2룸,공간편리",경기도 수원시 팔달구 인계동,38856173,2000,95,33.3,12,6,37.26619848324433,127.02833535383357,2023-11-27T12:09:44+09:00,월세,13
70,https://ic.zigbang.com/ic/items/38788763/1.jpg,인계동 주택단지 주방분리형 풀옵션 임대보증보험 빠른입주,경기도 수원시 팔달구 인계동,38788763,6000,0,8,3,1,37.26670296988737,127.02484685453615,2023-11-21T11:06:02+09:00,전세,4
71,https://ic.zigbang.com/ic/items/38789098/1.jpg,인계동 복개천 풀옵션원룸 저렴한월세 빠른입주 가능,경기도 수원시 팔달구 인계동,38789098,300,34,7,3,2,37.266194565149576,127.02486413965138,2023-11-24T17:29:50+09:00,월세,4
72,https://ic.zigbang.com/ic/items/38789133/1.jpg,원룸.보증보험O.반전세O.전세대출O.주차가능,경기도 수원시 팔달구 인계동,38789133,6000,0,7.5,3,1,37.266706522766334,127.02487412627977,2023-11-21T11:02:50+09:00,전세,4
73,https://ic.zigbang.com/ic/items/38842448/1.jpg,인계동 복개천 풀옵션원룸 저렴한월세 빠른입주 가능,경기도 수원시 팔달구 인계동,38842448,500,33,7,3,2,37.266707940782794,127.0248610435192,2023-11-25T12:48:35+09:00,월세,4
74,https://ic.zigbang.com/ic/items/38846168/1.jpg,인계동 복개천 풀옵션원룸 저렴한월세 빠른입주 가능,경기도 수원시 팔달구 인계동,38846168,1000,30,6,3,2,37.26672865,127.02484544501739,2023-11-25T17:06:57+09:00,월세,4
75,https://ic.zigbang.com/ic/items/38680447/1.jpg,ll공과금 없다ll 비싼 관리비 ll 이제 놉 ll,경기도 수원시 팔달구 인계동,38680447,100,40,7,6,5,37.26624385129119,127.03033468461332,2023-11-11T11:08:07+09:00,월세,10
76,https://ic.zigbang.com/ic/items/38680618/1.jpg,Vv 시청역5분.모든공과금포함 빨리오자,경기도 수원시 팔달구 인계동,38680618,100,40,7,6,4,37.26622235787466,127.03034783147122,2023-11-11T15:50:06+09:00,월세,10
77,https://ic.zigbang.com/ic/items/38790650/1.jpg,十十공과금 十十 다포함 十 싸다싸 十,경기도 수원시 팔달구 인계동,38790650,100,40,7,6,5,37.26622444907002,127.02973448750836,2023-11-21T11:52:54+09:00,월세,10
78,https://ic.zigbang.com/ic/items/38795420/1.jpg,AA 모든공과금포함혼자사시는분역5분거리,경기도 수원시 팔달구 인계동,38795420,100,40,7,6,4,37.266244316040535,127.02973467679159,2023-11-21T15:42:03+09:00,월세,10
79,https://ic.zigbang.com/ic/items/38794859/1.jpg,"수원시청역,반려동물OK,넓게나왓다",경기도 수원시 팔달구 인계동,38794859,100,57,6.5,7,5,37.26628326299528,127.02769125048033,2023-11-21T15:16:32+09:00,월세,8
80,https://ic.zigbang.com/ic/items/38630388/1.jpg,o인계박스 초저렴원룸o채광goodo편리한인프라,경기도 수원시 팔달구 인계동,38630388,200,60,7,7,5,37.26625364806831,127.02769640296307,2023-11-07T11:38:49+09:00,월세,0
81,https://ic.zigbang.com/ic/items/38741331/1.jpg,김찬병원인근 시청역도보7분 분리형원룸 시끄럽지않은위치,경기도 수원시 팔달구 인계동,38741331,200,50,6,7,2,37.26627148,127.02770025169706,2023-11-16T16:06:30+09:00,월세,10
82,https://ic.zigbang.com/ic/items/38851267/1.jpg,실매물. 단기OK.즉시입주가능.풀옵션,경기도 수원시 팔달구 인계동,38851267,100,57,7,7,5,37.26629090944272,127.02767052677636,2023-11-27T09:24:26+09:00,월세,8
83,https://ic.zigbang.com/ic/items/38810318/1.jpg,"oo인계동oo단기,월세 빨리나갑니다.",경기도 수원시 팔달구 인계동,38810318,200,55,8,8,8,37.26679488613754,127.02868411342868,2023-11-22T16:39:30+09:00,월세,6
84,https://ic.zigbang.com/ic/items/38372017/1.jpg,Oo 역세권 꿀월세 생각보다넓어요oO,경기도 수원시 팔달구 인계동,38372017,200,55,8,8,3,37.26628744620613,127.02804377221503,2023-11-11T12:04:09+09:00,월세,6
85,https://ic.zigbang.com/ic/items/38735237/1.jpg,v청춘v박스안ㅡ가성비ㅡ굿ㅡ,경기도 수원시 팔달구 인계동,38735237,200,55,7,8,5,37.26680070086276,127.02865643615623,2023-11-16T11:15:33+09:00,월세,6
86,https://ic.zigbang.com/ic/items/38839404/1.jpg,"vV수원역도보4분,풀옵션원룸,채광굿Vv",경기도 수원시 팔달구 매산로2가,38839404,500,35,6,5,4,37.26681833267029,127.00415446457387,2023-11-25T09:53:05+09:00,월세,5
87,https://ic.zigbang.com/ic/items/38828233/1.jpg,전세보증보험가능 시청역도보가까움 관리잘되는건물,경기도 수원시 팔달구 인계동,38828233,16000,0,9,6,3,37.26682994,127.02782599099777,2023-11-24T10:35:23+09:00,전세,10
88,https://ic.zigbang.com/ic/items/38695982/1.jpg,"풀옵션 2룸, 전세보증보험가능, 수원시청역 초역세권",경기도 수원시 팔달구 인계동,38695982,14100,0,9,7,4,37.266861818431984,127.02766024869614,2023-11-13T12:28:28+09:00,전세,10
89,https://ic.zigbang.com/ic/items/38698563/1.jpg,보증보험ok 시청역 주변에 이렇게 좋은 투룸이있네요,경기도 수원시 팔달구 인계동,38698563,14100,0,9,7,4,37.266372847632624,127.02767766954072,2023-11-13T14:12:38+09:00,전세,12
90,https://ic.zigbang.com/ic/items/38739294/1.jpg,"보증보험,전세대출,애완가능,2룸초역세권,5년차신축",경기도 수원시 팔달구 인계동,38739294,14900,0,12,7,4,37.266367078760126,127.02827300352537,2023-11-16T14:29:08+09:00,전세,10
91,https://ic.zigbang.com/ic/items/38000027/1.jpg,"Oo 마지막 남향 분리형  디자인끝판왕,수원시청역oO",경기도 수원시 팔달구 인계동,38000027,3000,60,21.2,11,고,37.26641250301881,127.0275123513585,2023-11-27T14:10:48+09:00,월세,9.9
92,https://ic.zigbang.com/ic/items/38591927/1.jpg,o.o역세권o.o오피스텔o.o풀옵션o.o,경기도 수원시 팔달구 인계동,38591927,5000,50,11.6,11,고,37.266897363930745,127.02752402848387,2023-11-03T14:41:50+09:00,월세,9.9
93,https://ic.zigbang.com/ic/items/38728305/1.jpg,S.넓은 분리형원룸 S.가성비 최고 S.마지막 세대,경기도 수원시 팔달구 인계동,38728305,3000,60,12.6,11,고,37.26691523715449,127.02814005676953,2023-11-15T16:22:01+09:00,월세,9.9
94,https://ic.zigbang.com/ic/items/38762104/1.jpg,Super II 최상층十안심월세 II 층간소음 없는 풀옵션,경기도 수원시 팔달구 인계동,38762104,3000,60,21.2,11,고,37.26690446089896,127.02811348852936,2023-11-19T15:20:46+09:00,월세,9.9
95,https://ic.zigbang.com/ic/items/38807837/1.jpg,1.완벽분리형 2.큰창문2개 3.예쁜집,경기도 수원시 팔달구 인계동,38807837,5000,50,21.2,11,고,37.266941738739604,127.02747007606563,2023-11-22T14:47:25+09:00,월세,9.9
96,https://ic.zigbang.com/ic/items/38842811/1.jpg,1. 정말 예쁜집 2. 보증금 조정 3. 풀옵션,경기도 수원시 팔달구 인계동,38842811,3000,60,18.3,11,중,37.26691583339785,127.0275102871557,2023-11-25T13:16:20+09:00,월세,9.9
97,https://ic.zigbang.com/ic/items/38855794/1.jpg,ㅁㅁ신축2년차.분리형.딱하나 남음.얼른보세용,경기도 수원시 팔달구 인계동,38855794,3000,60,10,11,11,37.26643162439044,127.02813358476881,2023-11-27T11:55:11+09:00,월세,9.9
98,https://ic.zigbang.com/ic/items/38854970/1.jpg,1.최우선변제금 2.전입신고OK 3.신축풀옵,경기도 수원시 팔달구 인계동,38854970,3000,60,18.4,11,고,37.26694482758918,127.02735358762833,2023-11-27T11:31:10+09:00,월세,9.9
99,https://ic.zigbang.com/ic/items/38745278/1.jpg,수원역 최단거리 풀옵션 반전세가능,경기도 수원시 팔달구 매산로2가,38745278,500,40,6,5,5,37.26696421157894,127.00439227277083,2023-11-17T09:14:26+09:00,월세,5
100,https://ic.zigbang.com/ic/items/38712877/1.jpg,수원역가까운 안전한 원룸보증금자유,경기도 수원시 팔달구 매산로2가,38712877,2000,25,5,5,3,37.26646051591837,127.0043586,2023-11-14T14:12:12+09:00,월세,5
101,https://ic.zigbang.com/ic/items/38820895/1.jpg,수원역 최단거리 풀옵션 보증금500부터 자유조정,경기도 수원시 팔달구 매산로2가,38820895,3000,15,5,5,5,37.26696839242491,127.0043837806895,2023-11-23T15:08:59+09:00,월세,5
102,https://ic.zigbang.com/ic/items/38825732/1.jpg,IIo 신축 oII 초역세권 단기가능,경기도 수원시 팔달구 매산로2가,38825732,180,50,7.5,10,10,37.26698363666181,127.00537206744441,2023-11-24T13:03:16+09:00,월세,13
103,https://ic.zigbang.com/ic/items/38833285/1.jpg,ll 신축 단기 남향 방 ll 위치 채광 굿완전 ll,경기도 수원시 팔달구 매산로2가,38833285,500,50,5.1,10,3,37.26652448106813,127.00471268075363,2023-11-24T14:42:15+09:00,월세,13
104,https://ic.zigbang.com/ic/items/38856942/1.jpg,Oo 신축 oO 단기가능 인기원룸,경기도 수원시 팔달구 매산로2가,38856942,180,50,7.5,10,9,37.26648945763736,127.00536718073243,2023-11-27T14:13:40+09:00,월세,13
105,https://ic.zigbang.com/ic/items/38560908/1.jpg,수원역 초역세권 안전한위치신축 풀옵션,경기도 수원시 팔달구 매산로2가,38560908,180,54,1.5,9,3,37.266522361988464,127.00472598188959,2023-11-01T13:20:42+09:00,월세,10
106,https://ic.zigbang.com/ic/items/38672734/1.jpg,mo 신축형 원룸  단기 가능 om,경기도 수원시 팔달구 매산로2가,38672734,180,50,7,10,4,37.26651735441235,127.00535534171797,2023-11-21T15:38:14+09:00,월세,13
107,https://ic.zigbang.com/ic/items/38776940/1.jpg,V 신축 단기 V 채광 좋은 남향 방 V,경기도 수원시 팔달구 매산로2가,38776940,200,50,6.5,10,9,37.26651516636823,127.00473670532162,2023-11-20T12:53:55+09:00,월세,13
108,https://ic.zigbang.com/ic/items/38776951/1.jpg,ll신축 단기 원룸 ll 채광 좋은 남향 방ll,경기도 수원시 팔달구 매산로2가,38776951,180,50,7,10,8,37.26651780627769,127.0053763071583,2023-11-20T12:54:26+09:00,월세,13
109,https://ic.zigbang.com/ic/items/38776970/1.jpg,ll 신축 단기 원룸 ll수원역  도보4분 ll,경기도 수원시 팔달구 매산로2가,38776970,200,50,7,10,6,37.26650256818708,127.00536608334686,2023-11-20T12:55:10+09:00,월세,14
110,https://ic.zigbang.com/ic/items/38776988/1.jpg,ll 신축 단기 ll 남향 방 완전 풀옵션 ll,경기도 수원시 팔달구 매산로2가,38776988,200,50,6.5,10,3,37.26652099987496,127.0053807333801,2023-11-20T16:21:41+09:00,월세,13
111,https://ic.zigbang.com/ic/items/38784118/1.jpg,Oo 신축 oO 수원역 인기매물,경기도 수원시 팔달구 매산로2가,38784118,200,50,7.5,10,7,37.266490717647805,127.0053481436631,2023-11-20T17:49:06+09:00,월세,13
112,https://ic.zigbang.com/ic/items/38784142/1.jpg,Oo 신축 oO 수원역  단기가능,경기도 수원시 팔달구 매산로2가,38784142,200,50,7.5,10,10,37.267023532021646,127.00537726549717,2023-11-24T12:47:56+09:00,월세,13
113,https://ic.zigbang.com/ic/items/38831061/1.jpg,ll 신축 단기 남향 방 ll 위치 채광 굿완전 ll,경기도 수원시 팔달구 매산로2가,38831061,180,50,6.5,10,9,37.26650243307548,127.00472324161929,2023-11-24T12:40:41+09:00,월세,13
114,https://ic.zigbang.com/ic/items/38391235/1.jpg,ll단기ll1개월단위로 연장가능ll컨디션최상ll즉시입주,경기도 수원시 팔달구 매산로2가,38391235,10,55,6,15,11,37.26698374175602,127.00557192395834,2023-11-06T10:11:12+09:00,월세,10
115,https://ic.zigbang.com/ic/items/38444024/1.jpg,oO 신축 Oo 단기 1개월가능 Oo,경기도 수원시 팔달구 매산로2가,38444024,10,55,8.2,15,9,37.267019719045955,127.00556328180153,2023-11-27T14:13:46+09:00,월세,10
116,https://ic.zigbang.com/ic/items/38769873/1.jpg,Oo 신축 oO 단기 1개월가능,경기도 수원시 팔달구 매산로2가,38769873,10,55,7.3,15,10,37.26700529611974,127.00559648525949,2023-11-26T18:16:27+09:00,월세,10
117,https://ic.zigbang.com/ic/items/38829605/1.jpg,w방역소독w1개월w단기방w,경기도 수원시 팔달구 매산로2가,38829605,10,55,6,15,10,37.26699018660867,127.00620604024424,2023-11-24T11:28:59+09:00,월세,10
118,https://ic.zigbang.com/ic/items/38831528/1.jpg,ㅊ소독방역ㅊ단기방ㅊ,경기도 수원시 팔달구 매산로2가,38831528,50,50,6,15,10,37.267026027917375,127.00557552757779,2023-11-24T13:09:37+09:00,월세,5
119,https://ic.zigbang.com/ic/items/38206295/1.jpg,ll 1개월단위 연장가능 ll 즉시입주 ll,경기도 수원시 팔달구 매산로2가,38206295,10,55,6,15,12,37.26651948809629,127.00621057161224,2023-11-06T10:04:48+09:00,월세,10
120,https://ic.zigbang.com/ic/items/38237658/1.jpg,w수원역 단기w,경기도 수원시 팔달구 매산로2가,38237658,50,50,6,15,5,37.26653212467197,127.00555899962748,2023-11-10T10:46:12+09:00,월세,5
121,https://ic.zigbang.com/ic/items/38640059/1.jpg,w단기w1개월w가능w,경기도 수원시 팔달구 매산로2가,38640059,10,55,6,15,5,37.26700644,127.00616671907589,2023-11-07T21:31:04+09:00,월세,10
122,https://ic.zigbang.com/ic/items/38823044/1.jpg,w단기 1개월가능w,경기도 수원시 팔달구 매산로2가,38823044,10,55,6,15,5,37.266998015709845,127.00620198060105,2023-11-23T16:50:06+09:00,월세,10
123,https://ic.zigbang.com/ic/items/38823050/1.jpg,ㅊ수원역ㅊ최상급ㅊ단기ㅊ,경기도 수원시 팔달구 매산로2가,38823050,50,50,6,15,5,37.266998918566216,127.00554512064366,2023-11-23T16:50:40+09:00,월세,5
124,https://ic.zigbang.com/ic/items/38516412/1.jpg,ㅣ수원역ㅣ단기ㅣ1개월부터ㅣ즉시입주ㅣ,경기도 수원시 팔달구 매산로2가,38516412,10,55,6,15,5,37.266528895595144,127.00557006062476,2023-10-30T11:02:12+09:00,월세,10
125,https://ic.zigbang.com/ic/items/38781714/1.jpg,인계동박스 풀옵션복층원룸 올도배. 싱크대수리 예정,경기도 수원시 팔달구 인계동,38781714,500,50,10,11,4,37.26704397678652,127.03016842005695,2023-11-20T16:12:31+09:00,월세,10.5
126,https://ic.zigbang.com/ic/items/38785357/1.jpg,"로켓입주, 안전한 반전세, 복층, 풀옵션",경기도 수원시 팔달구 인계동,38785357,4500,18,17.5,11,6,37.26653086993506,127.02955087035345,2023-11-21T16:49:19+09:00,월세,9
127,https://ic.zigbang.com/ic/items/38861406/1.jpg,인계동박스 활용도높은 복층큰원룸 무융자 반전세,경기도 수원시 팔달구 인계동,38861406,4000,20,10,11,6,37.26701451217852,127.03020049898396,2023-11-27T15:43:58+09:00,월세,11
128,https://ic.zigbang.com/ic/items/38833675/1.jpg,oo보증금대출oo보증보험oo풀옵션oo드레스룸oo,경기도 수원시 팔달구 인계동,38833675,5000,93,17,5,2,37.267035025168205,127.0238973818349,2023-11-25T12:18:32+09:00,월세,12
129,https://ic.zigbang.com/ic/items/38627420/1.jpg,ll 수원역 ll 한달단기 가능 ll,경기도 수원시 팔달구 매산로2가,38627420,10,55,6,10,9,37.26658473289406,127.00635383135041,2023-11-07T10:00:53+09:00,월세,10
130,https://ic.zigbang.com/ic/items/38663780/1.jpg,Oo 신축 oO 단기 1개월가능 oO,경기도 수원시 팔달구 매산로2가,38663780,10,55,8.2,10,10,37.26658321,127.00634867814524,2023-11-26T18:16:55+09:00,월세,10
131,https://ic.zigbang.com/ic/items/38446228/1.jpg,"빠른입주, 펜트하우스, 단독테라스, 복층, 생활권 최고",경기도 수원시 팔달구 인계동,38446228,1000,70,15.9,12,12,37.26660131514356,127.03279725449784,2023-11-21T15:40:24+09:00,월세,10
132,https://ic.zigbang.com/ic/items/38777846/1.jpg,"빠른입주, 채광굿, 주차편리, 생활권 최고",경기도 수원시 팔달구 인계동,38777846,500,55,15.9,12,8,37.266591447626595,127.03276360743337,2023-11-20T13:31:53+09:00,월세,10
133,https://ic.zigbang.com/ic/items/38836613/1.jpg,깔끔 수원역3분,경기도 수원시 팔달구 매산로2가,38836613,200,30,5,5,3,37.26707278349075,127.00398658424979,2023-11-24T17:25:04+09:00,월세,7
134,https://ic.zigbang.com/ic/items/38646861/1.jpg,실매물. 거실十방.깔끔깨끗.풀옵션,경기도 수원시 팔달구 인계동,38646861,1000,57,7.5,5,3,37.267180039949274,127.02249551826331,2023-11-08T14:07:22+09:00,월세,9
135,https://ic.zigbang.com/ic/items/38741902/1.jpg,전철역 도보 10분  분리형원룸 풀옵션,경기도 수원시 팔달구 인계동,38741902,1000,48,6.9,5,5,37.26718039130742,127.02249667321507,2023-11-21T16:57:20+09:00,월세,9
136,https://ic.zigbang.com/ic/items/38857219/1.jpg,인계동 매교역도보13분 풀옵션 주방분리형원룸 빠른입주가능,경기도 수원시 팔달구 인계동,38857219,1000,45,5,5,5,37.26717921,127.02246419625521,2023-11-27T12:56:00+09:00,월세,9
137,https://ic.zigbang.com/ic/items/38854728/1.jpg,무융자 복층원룸 인계동 중심 오피스텔,경기도 수원시 팔달구 인계동,38854728,12000,0,10,11,중,37.26716096920482,127.03042700287526,2023-11-27T11:23:59+09:00,전세,13
138,https://ic.zigbang.com/ic/items/38817258/1.jpg,"전망채광굿,전입신고,시청역도보5분,무료주차,편리한대중교통",경기도 수원시 팔달구 인계동,38817258,300,37,11.9,15,13,37.26720494702659,127.03165190560215,2023-11-23T11:52:24+09:00,월세,7
139,https://ic.zigbang.com/ic/items/38796714/1.jpg,조용한집 금액조정0 즉시입주0 풀옵션0 컨디션최상,경기도 수원시 팔달구 인계동,38796714,2000,55,6.8,10,4,37.267244343667784,127.02771548843991,2023-11-21T16:39:35+09:00,월세,8
140,https://ic.zigbang.com/ic/items/38823735/1.jpg,ㆅ역세권 ㆅ넘버원ㆅ탑ㆅ,경기도 수원시 팔달구 인계동,38823735,2000,55,8,10,5,37.26674983077261,127.02773221361463,2023-11-27T11:33:54+09:00,월세,10
141,https://ic.zigbang.com/ic/items/38843821/1.jpg,V 인기매물 난방비 포함 V  깔끔한 원룸 V,경기도 수원시 팔달구 매산로2가,38843821,500,39,6,8,5,37.26681735183689,127.00562647111349,2023-11-25T14:22:15+09:00,월세,9
142,https://ic.zigbang.com/ic/items/38844714/1.jpg,전입OK 전기세만 내세요,경기도 수원시 팔달구 매산로2가,38844714,500,40,5,8,6,37.26732173276396,127.00498422869103,2023-11-25T15:24:15+09:00,월세,9
143,https://ic.zigbang.com/ic/items/38858311/1.jpg,Oo 수원역 풀옵션 인기원룸 oO,경기도 수원시 팔달구 매산로2가,38858311,300,42,6.1,9,6,37.26683268750789,127.00499944528907,2023-11-27T13:41:32+09:00,월세,9
144,https://ic.zigbang.com/ic/items/38842095/1.jpg,"vV수원역도보5분,풀옵션,넓은원룸Vv",경기도 수원시 팔달구 매산로2가,38842095,300,41,6,8,3,37.26683204849075,127.00500523049499,2023-11-25T12:25:05+09:00,월세,9
145,https://ic.zigbang.com/ic/items/38854430/1.jpg,AN223수원역10분이내.깨끗한원룸.주차및전입가능,경기도 수원시 팔달구 매산로2가,38854430,500,37,5.5,8,2,37.266824912189335,127.00503227084175,2023-11-27T11:16:05+09:00,월세,9
146,https://ic.zigbang.com/ic/items/38858516/1.jpg,V수원역 도보5분 V 안전하고 깔끔한 방 V,경기도 수원시 팔달구 매산로2가,38858516,500,40,6,8,2,37.26679990220303,127.00560191311091,2023-11-27T13:49:04+09:00,월세,9
147,https://ic.zigbang.com/ic/items/38669160/1.jpg,광고올리면서 가격에 놀라고 크기에  놀라고 위치에 기절하네,경기도 수원시 팔달구 인계동,38669160,11000,0,14.7,5,3,37.26687355956767,127.03032640353189,2023-11-22T10:40:22+09:00,전세,5
148,https://ic.zigbang.com/ic/items/38684066/1.jpg,방2 큼 대출가능 수인분당선인근 가격좋은투룸,경기도 수원시 팔달구 인계동,38684066,11000,0,14.7,5,3,37.26688079695095,127.03034252860412,2023-11-11T15:12:15+09:00,전세,9
149,https://ic.zigbang.com/ic/items/38720782/1.jpg,인계동 박스 신축급  풀옵션원룸  건조기 주차O,경기도 수원시 팔달구 인계동,38720782,3000,72,8,9,고,37.267020441345636,127.02976344895576,2023-11-16T12:59:15+09:00,월세,9
150,https://ic.zigbang.com/ic/items/38781971/1.jpg,수원시청역 주차편리하고 보증금조절가능한 신축급 원룸,경기도 수원시 팔달구 인계동,38781971,2000,75,12,9,고,37.26751648776612,127.02914628970314,2023-11-20T16:20:43+09:00,월세,9
151,https://ic.zigbang.com/ic/items/38834388/1.jpg,Oo 보증보험O대출OK위치굿 건조기옵션굿 역세권oO,경기도 수원시 팔달구 인계동,38834388,15500,0,12,9,중,37.26750036324275,127.02975070091291,2023-11-24T15:36:52+09:00,전세,9
152,https://ic.zigbang.com/ic/items/38840553/1.jpg,II보증보험II안전매물II신축.초역세권II,경기도 수원시 팔달구 인계동,38840553,15000,0,13,9,중,37.267505186768155,127.02976207128064,2023-11-25T11:01:16+09:00,전세,9
153,https://ic.zigbang.com/ic/items/38852703/1.jpg,o신축1.5룸월세o보증금조정가능o완전풀옵o인계박스,경기도 수원시 팔달구 인계동,38852703,2000,75,10,9,고,37.267489846099394,127.02915431303776,2023-11-27T10:31:11+09:00,월세,10
154,https://ic.zigbang.com/ic/items/38796988/1.jpg,oo리모델링예정oo보증보험필수oo시청역도보oo,경기도 수원시 팔달구 인계동,38796988,16000,0,12,7,7,37.267566496875936,127.02742865502142,2023-11-21T16:50:33+09:00,전세,12
155,https://ic.zigbang.com/ic/items/38718813/1.jpg,1.전액보증보험 2.넓은원룸 3.전입OK대출OK,경기도 수원시 팔달구 인계동,38718813,10000,0,15.6,7,고,37.26760275526222,127.0274086840185,2023-11-14T18:51:19+09:00,전세,10
156,https://ic.zigbang.com/ic/items/38766887/1.jpg,o0청춘0oㅣ딱ㅣ한ㅣ세ㅣ대ㅣ만ㅣ,경기도 수원시 팔달구 인계동,38766887,500,60,15.6,7,고,37.26710706785203,127.02801489681435,2023-11-18T23:29:27+09:00,월세,10
157,https://ic.zigbang.com/ic/items/38795466/1.jpg,"수원시청역,베란다,월세공실딱1개",경기도 수원시 팔달구 인계동,38795466,500,60,10,7,고,37.26758789118378,127.0280402564897,2023-11-21T15:43:34+09:00,월세,10
158,https://ic.zigbang.com/ic/items/38852377/1.jpg,대형1.5룸. 보증보험. 수원시청역,경기도 수원시 팔달구 인계동,38852377,10000,0,15.2,7,고,37.26710875981195,127.02741428978632,2023-11-27T10:22:50+09:00,전세,10
159,https://ic.zigbang.com/ic/items/38718641/1.jpg,v풀옵션원룸v가성비v꿀매물v,경기도 수원시 팔달구 인계동,38718641,10000,0,8.2,5,4,37.26712008109759,127.0256595975266,2023-11-14T18:38:15+09:00,전세,9
160,https://ic.zigbang.com/ic/items/38680301/1.jpg,인계동박스 풀옵션 2월24일입주 고정 무융자 임대보증보험O,경기도 수원시 팔달구 인계동,38680301,13650,0,10,13,중,37.267141289894376,127.02935313431435,2023-11-11T12:14:24+09:00,전세,8
161,https://ic.zigbang.com/ic/items/38681533/1.jpg,인계동박스 슬라이드 분리 깔끔한 풀옵션원룸,경기도 수원시 팔달구 인계동,38681533,500,70,13,13,중,37.267619757165825,127.02935418821971,2023-11-16T12:59:05+09:00,월세,8
162,https://ic.zigbang.com/ic/items/38703695/1.jpg,인계동박스 풀옵션원룸 무융자 보증보험 주차O,경기도 수원시 팔달구 인계동,38703695,12960,0,12.3,13,8,37.26712173306634,127.02937028426949,2023-11-13T17:49:17+09:00,전세,8
163,https://ic.zigbang.com/ic/items/38719684/1.jpg,"버팀목가능, 중기청80가능,  반환보험가능",경기도 수원시 팔달구 인계동,38719684,12870,0,16,13,고,37.26713605,127.02938798194393,2023-11-24T17:30:41+09:00,전세,9.5
164,https://ic.zigbang.com/ic/items/38737341/1.jpg,인계동박스 인기있는 깔끔한 풀옵션원룸,경기도 수원시 팔달구 인계동,38737341,1000,65,10,13,중,37.26764538,127.0293738713843,2023-11-27T11:51:51+09:00,월세,8
165,https://ic.zigbang.com/ic/items/38836777/1.jpg,"LH가능, 실9평, 1.5룸구조",경기도 수원시 팔달구 인계동,38836777,12870,0,16,13,12,37.26712453,127.02875279566825,2023-11-24T17:35:42+09:00,전세,9.5
166,https://ic.zigbang.com/ic/items/38658504/1.jpg,彡수원역도보8분彡중문O풀옵션투룸,경기도 수원시 팔달구 매산로3가,38658504,4000,77,12,4,3,37.26764268021418,127.00831585006354,2023-11-09T13:06:42+09:00,월세,10
167,https://ic.zigbang.com/ic/items/38564910/1.jpg,무융자ㅣ보증보험ㅣ전세대출ㅣ신축첫입주,경기도 수원시 팔달구 인계동,38564910,15000,0,18.9,12,11,37.26718998932578,127.02843612895944,2023-11-01T15:49:11+09:00,전세,12
168,https://ic.zigbang.com/ic/items/38591911/1.jpg,o.o보증보험o.o융자말소o.o신축첫입주o.o풀옵션o.o,경기도 수원시 팔달구 인계동,38591911,15000,0,9,12,고,37.26721526788632,127.02904054903851,2023-11-03T14:41:28+09:00,전세,12
169,https://ic.zigbang.com/ic/items/38697854/1.jpg,ㆀ첫입주ㆀ역세권ㆀ최저가ㆀ보증금ㆀ,경기도 수원시 팔달구 인계동,38697854,500,80,12,12,7,37.267686419389996,127.02843960164745,2023-11-24T18:29:50+09:00,월세,12
170,https://ic.zigbang.com/ic/items/38722275/1.jpg,1.무융자 보증보험 2.전세대출가능 3.신축 첫 입주,경기도 수원시 팔달구 인계동,38722275,15000,0,18.9,12,12,37.267704511743496,127.02904296221378,2023-11-22T12:13:35+09:00,전세,12
171,https://ic.zigbang.com/ic/items/38783320/1.jpg,ForYou 최강인프라l안심월세l드레스룸 별도l시원한맞창,경기도 수원시 팔달구 인계동,38783320,500,80,27.8,12,7,37.26721068408558,127.02843946134949,2023-11-20T17:18:16+09:00,월세,12
172,https://ic.zigbang.com/ic/items/38797913/1.jpg,1.신축첫입주2.보증금조정가능3.풀옵션,경기도 수원시 팔달구 인계동,38797913,500,80,15,12,고,37.26720439179263,127.02842211758419,2023-11-21T17:29:04+09:00,월세,12
173,https://ic.zigbang.com/ic/items/38803908/1.jpg,1.드레스룸 2.보증금 조정가능 3.빠른입주,경기도 수원시 팔달구 인계동,38803908,500,80,15.4,12,고,37.26717764519971,127.02845353766293,2023-11-22T11:38:14+09:00,월세,12
174,https://ic.zigbang.com/ic/items/38804752/1.jpg,1.HUG 전액보증보험 2. 무융자 3.모든 기금 대출가능,경기도 수원시 팔달구 인계동,38804752,15000,0,12.7,12,고,37.267212360249914,127.02904147103334,2023-11-22T12:13:09+09:00,전세,13
175,https://ic.zigbang.com/ic/items/38805950/1.jpg,ㅁ최우선변제금.신축첫입주ㅁ 시청역6분.풀옵션.즉시입주,경기도 수원시 팔달구 인계동,38805950,500,80,11,12,고,37.26718422425334,127.02906615403259,2023-11-27T10:30:16+09:00,월세,12
176,https://ic.zigbang.com/ic/items/38828611/1.jpg,"II초역세권II신축첫입주,보증보험II선착순 층수,호실선택",경기도 수원시 팔달구 인계동,38828611,15000,0,10,12,고,37.267709326907934,127.02846432386302,2023-11-24T10:49:10+09:00,전세,12
177,https://ic.zigbang.com/ic/items/38828623/1.jpg,"II첫입주 원룸II드레스룸,주차가능II인계박스 역세권",경기도 수원시 팔달구 인계동,38828623,500,80,10,12,고,37.26768998217346,127.02841366104838,2023-11-24T10:49:55+09:00,월세,12
178,https://ic.zigbang.com/ic/items/38830745/1.jpg,ㅁ전액보증보험 ㅁ모든대출 ㅁ안심전세 ㅁ신축풀옵션,경기도 수원시 팔달구 인계동,38830745,15000,0,15.2,12,고,37.26768602510599,127.02906894519256,2023-11-24T12:21:37+09:00,전세,12
179,https://ic.zigbang.com/ic/items/38836263/1.jpg,1. 방1드레스룸 2. 역세권 3. 보증금조정,경기도 수원시 팔달구 인계동,38836263,500,80,12,12,고,37.267198148112236,127.02845799605464,2023-11-24T17:07:56+09:00,월세,12
180,https://ic.zigbang.com/ic/items/38562362/1.jpg,Oo인계동 풀옵션원룸 저렴월세꿀매물인계동 상권 초근접oO,경기도 수원시 팔달구 인계동,38562362,2000,35,4.1,7,5,37.267225506869806,127.02611915699391,2023-11-15T15:46:36+09:00,월세,7
181,https://ic.zigbang.com/ic/items/38736815/1.jpg,II 가성비1위 II 인계동.대로변.풀옵션II,경기도 수원시 팔달구 인계동,38736815,2000,35,4.1,7,5,37.26721032879046,127.02609339349915,2023-11-16T12:18:14+09:00,월세,7
182,https://ic.zigbang.com/ic/items/38775211/1.jpg,...청춘... 家ㅣ인계동ㅣ 핵중심ㅣ 햇빛가득ㅣ家,경기도 수원시 팔달구 인계동,38775211,2000,35,7,7,5,37.267203585244054,127.02673725813086,2023-11-20T11:49:11+09:00,월세,6
183,https://ic.zigbang.com/ic/items/38530047/1.jpg,핫매물 파르마 수원역 대로변 채광 좋은방,경기도 수원시 팔달구 매산로2가,38530047,300,45,10,13,중,37.26724292776337,127.00453906747155,2023-10-30T11:52:34+09:00,월세,8
184,https://ic.zigbang.com/ic/items/38587267/1.jpg,ll 파르마 초특가 ll 안전한 방 전망 좋은 방 ll,경기도 수원시 팔달구 매산로2가,38587267,500,45,12,13,고,37.26727314166514,127.00392622511866,2023-11-03T10:57:59+09:00,월세,9
185,https://ic.zigbang.com/ic/items/38676517/1.jpg,안전한 위치 깔끔한  풀옵션,경기도 수원시 팔달구 매산로2가,38676517,500,45,10,13,중,37.26725893678192,127.00395689313943,2023-11-13T17:15:09+09:00,월세,10
186,https://ic.zigbang.com/ic/items/38596940/1.jpg,oO청춘Oo 단기b 저렴b 넓은 방bbb,경기도 수원시 팔달구 인계동,38596940,52,48,6.5,3,3,37.26735273587383,127.0228061459703,2023-11-03T19:27:10+09:00,월세,4
187,https://ic.zigbang.com/ic/items/38729684/1.jpg,oO청춘Oo 인계.큰분리형.베란다,경기도 수원시 팔달구 인계동,38729684,1000,52,8,4,3,37.26741689036478,127.02640405227494,2023-11-15T16:58:31+09:00,월세,7
188,https://ic.zigbang.com/ic/items/38730717/1.jpg,인계사거리인근 풀옵션 분리형원룸 주차무료 즉시입주,경기도 수원시 팔달구 인계동,38730717,1000,52,10,4,3,37.26792423917183,127.02581887451763,2023-11-15T17:47:07+09:00,월세,6
189,https://ic.zigbang.com/ic/items/38797041/1.jpg,분리형원룸 가격좋은집 인계동에 위치좋은 집,경기도 수원시 팔달구 인계동,38797041,500,58,7,4,3,37.26743283843319,127.02583083452913,2023-11-21T16:57:22+09:00,월세,6
190,https://ic.zigbang.com/ic/items/37875519/1.jpg,인계사거리 부근에 있는 넓고 깨끗한 주차좋은 1.5룸이예요,경기도 수원시 팔달구 인계동,37875519,1000,54,13,4,3,37.26790310032836,127.02577879283356,2023-11-24T14:08:19+09:00,월세,5
191,https://ic.zigbang.com/ic/items/38593165/1.jpg,보증보험가능 단독테라스 풀옵션원룸 약8평 넓직한집,경기도 수원시 팔달구 인계동,38593165,11000,0,7.6,5,4,37.267975769819415,127.02399331575478,2023-11-03T15:39:28+09:00,전세,13
192,https://ic.zigbang.com/ic/items/38742098/1.jpg,보증보험O 왕테라스 원룸 주차편리,경기도 수원시 팔달구 인계동,38742098,11000,0,9,5,4,37.26797412515541,127.02338351555714,2023-11-16T16:44:29+09:00,전세,13
193,https://ic.zigbang.com/ic/items/38797218/1.jpg,풀풀옵션 현재공실 위치좋음 가격조정가능,경기도 수원시 팔달구 인계동,38797218,2000,55,4.7,6,4,37.26820553698682,127.02606064526007,2023-11-21T16:59:44+09:00,월세,8
194,https://ic.zigbang.com/ic/items/38856807/1.jpg,월세가격좋아요 상권좋아요 살기좋아요 전용넓어요,경기도 수원시 팔달구 인계동,38856807,3000,40,5.5,6,3,37.26769358548755,127.02607342119363,2023-11-27T12:35:39+09:00,월세,8
195,https://ic.zigbang.com/ic/items/38801897/1.jpg,매교역 바로앞 단기꿀매물 방도넓어요,경기도 수원시 팔달구 매교동,38801897,50,38,6.8,9,6,37.26781335797337,127.01550633876089,2023-11-22T10:31:02+09:00,월세,4
196,https://ic.zigbang.com/ic/items/38749895/1.jpg,1.신축첫입주 2.실평수 25평 3.더블역세권,경기도 수원시 팔달구 매산로3가,38749895,5000,95,25.4,6,2,37.26833221698404,127.00730011558592,2023-11-24T18:26:15+09:00,월세,7
197,https://ic.zigbang.com/ic/items/38761785/1.jpg,Super II수원역十25평II 초대형 신축 쓰리룸,경기도 수원시 팔달구 매산로3가,38761785,5000,95,24.6,6,5,37.26780436896124,127.00733520296772,2023-11-18T13:20:47+09:00,월세,7
198,https://ic.zigbang.com/ic/items/38859672/1.jpg,ㅁ수원역도보ㅁ에어컨4대ㅁ신축ㅁ안전한월세,경기도 수원시 팔달구 매산로3가,38859672,5000,95,25.4,6,2,37.26830055,127.00729373584824,2023-11-27T14:34:13+09:00,월세,7
199,https://ic.zigbang.com/ic/items/38844653/1.jpg,00 주방분리 베란다 따로 0 싱크대 새로교체 00,경기도 수원시 팔달구 인계동,38844653,300,35,6,3,2,37.267979295892964,127.02443102499326,2023-11-27T15:23:47+09:00,월세,4
200,https://ic.zigbang.com/ic/items/38844666/1.jpg,00 싱크대 전체교체 0 밝은방 부엌따로 베란다 풀옵 00,경기도 수원시 팔달구 인계동,38844666,300,35,6,3,2,37.268013564036096,127.02442897250802,2023-11-25T15:17:28+09:00,월세,4
201,https://ic.zigbang.com/ic/items/38844739/1.jpg,十인계동 최저가 원룸十즉시입주OK十풀옵션 깔끔한 방十,경기도 수원시 팔달구 인계동,38844739,300,35,6,3,2,37.26846586223898,127.02380522230159,2023-11-25T15:20:46+09:00,월세,4
202,https://ic.zigbang.com/ic/items/38844748/1.jpg,十최저가 원룸十즉시입주OK十수원시청역 도보가능十풀옵션十,경기도 수원시 팔달구 인계동,38844748,300,35,6,3,2,37.267987625444334,127.02382630598875,2023-11-25T15:21:13+09:00,월세,4
203,https://ic.zigbang.com/ic/items/38852099/1.jpg,넓은 분리형 원룸입니다,경기도 수원시 팔달구 매산로2가,38852099,500,46,9,3,3,37.26809738386242,127.0069951490225,2023-11-27T10:15:50+09:00,월세,4
204,https://ic.zigbang.com/ic/items/38568170/1.jpg,무융자 보증보험 대출all패스 감성 1.5룸,경기도 수원시 팔달구 인계동,38568170,14500,0,9,7,4,37.26864434774064,127.02811254151585,2023-11-14T17:07:10+09:00,전세,10
205,https://ic.zigbang.com/ic/items/38594251/1.jpg,무융자 보증보험가능 풀풀옵션 예쁜집 안전한집,경기도 수원시 팔달구 인계동,38594251,14500,0,6.5,7,4,37.26867139,127.02868771601901,2023-11-03T16:36:24+09:00,전세,10
206,https://ic.zigbang.com/ic/items/38683891/1.jpg,융자없음 보증보험가능 깔끔함 안전전세,경기도 수원시 팔달구 인계동,38683891,12700,0,5.3,7,6,37.268653381258474,127.02805756497695,2023-11-11T14:58:19+09:00,전세,10
207,https://ic.zigbang.com/ic/items/38760845/1.jpg,보증보험가능ㅣ전세대출가능ㅣ무융자ㅣ무융자,경기도 수원시 팔달구 인계동,38760845,15000,0,7,7,7,37.26817245157654,127.02810088504638,2023-11-18T12:20:45+09:00,전세,10
208,https://ic.zigbang.com/ic/items/38839767/1.jpg,ㅇ무융자ㅇ보증보험ㅇ올리모델링ㅇ풀옵션ㅇ채광짱인집ㅇ,경기도 수원시 팔달구 인계동,38839767,14500,0,6.2,7,4,37.26867954613325,127.02807661486474,2023-11-25T10:15:33+09:00,전세,10
209,https://ic.zigbang.com/ic/items/38854467/1.jpg,AN883수원역10분거리 큰방주방분리형원룸주차가능,경기도 수원시 팔달구 매산로2가,38854467,500,42,7.6,4,3,37.26826952686531,127.00753772347477,2023-11-27T11:16:56+09:00,월세,4
210,https://ic.zigbang.com/ic/items/38661219/1.jpg,복개천 인계사거리 인근 분리형 풀옵션 원룸 보증금조정OK,경기도 수원시 팔달구 인계동,38661219,3000,40,7,6,5,37.26874607766179,127.02504419951899,2023-11-10T12:32:04+09:00,월세,8
211,https://ic.zigbang.com/ic/items/38807404/1.jpg,거실있는 분리형원룸 버스3분 경수대로옆,경기도 수원시 팔달구 인계동,38807404,3000,40,9,6,5,37.268249547539355,127.02503914947049,2023-11-22T16:39:57+09:00,월세,8
212,https://ic.zigbang.com/ic/items/38827975/1.jpg,분리형원룸 쾌적함 풀옵션 실매물사진,경기도 수원시 팔달구 인계동,38827975,3000,40,5.3,6,5,37.268247485735316,127.02444598996254,2023-11-24T10:24:55+09:00,월세,8
213,https://ic.zigbang.com/ic/items/38856774/1.jpg,보증보험가능 깔끔한투룸 쾌적함 실매물사진,경기도 수원시 팔달구 인계동,38856774,13000,30,12,6,6,37.26827061368248,127.02442389994063,2023-11-27T12:34:17+09:00,월세,10
214,https://ic.zigbang.com/ic/items/38570540/1.jpg,o0청춘0o분리형.떳다.즉시입주ok,경기도 수원시 팔달구 인계동,38570540,100,56,11,5,5,37.26879401828477,127.02375770934319,2023-11-01T22:13:27+09:00,월세,11
215,https://ic.zigbang.com/ic/items/38704401/1.jpg,Vv오늘의늬우스vV 완벽분리 방1거실1 단기OK,경기도 수원시 팔달구 인계동,38704401,100,60,6.8,5,2,37.26831808349581,127.02312692831919,2023-11-23T18:25:18+09:00,월세,11
216,https://ic.zigbang.com/ic/items/38712102/1.jpg,十단기十 무보증 十 초대형 十 쩜오룸 十,경기도 수원시 팔달구 인계동,38712102,100,60,6.8,5,2,37.26831791534551,127.02379142619046,2023-11-14T13:36:48+09:00,월세,11
217,https://ic.zigbang.com/ic/items/38736812/1.jpg,II 완벽분리 II 단기가능 II,경기도 수원시 팔달구 인계동,38736812,100,60,6.8,5,2,37.26877253325294,127.0231681859647,2023-11-16T12:18:03+09:00,월세,11
218,https://ic.zigbang.com/ic/items/38759817/1.jpg,실매물. 단기OK.거실十방十베란다,경기도 수원시 팔달구 인계동,38759817,100,60,6.8,5,2,37.268785145206174,127.0237489538915,2023-11-18T11:20:48+09:00,월세,11
219,https://ic.zigbang.com/ic/items/38794867/1.jpg,"인계동SSS급,완벽분리,주차전용가능,베란다",경기도 수원시 팔달구 인계동,38794867,100,60,10,5,5,37.26878839684743,127.02312825885427,2023-11-21T15:16:47+09:00,월세,11
220,https://ic.zigbang.com/ic/items/38854162/1.jpg,"AN777도배장판및싱크대교체,넓은거실,수원역도보10분이내",경기도 수원시 팔달구 매산로2가,38854162,1000,60,15.4,5,3,37.26834875408962,127.00720375705093,2023-11-27T11:10:00+09:00,월세,7
221,https://ic.zigbang.com/ic/items/38854233/1.jpg,"AN333신축쓰리룸,베란다있음,수원역10분거리수원세무서인근",경기도 수원시 팔달구 매산로3가,38854233,3000,80,14.8,9,6,37.26891109804118,127.00819719239261,2023-11-27T11:11:36+09:00,월세,4
222,https://ic.zigbang.com/ic/items/38658347/1.jpg,Oo 사이즈굿 인계사거리  풀옵션 큰 1.5룸 oO,경기도 수원시 팔달구 인계동,38658347,1000,65,7.3,7,6,37.26895599670981,127.0245142,2023-11-09T12:50:25+09:00,월세,8
223,https://ic.zigbang.com/ic/items/38586066/1.jpg,十저렴한 대형 1.5룸十풀옵션十깔끔하고 교통좋은 방十,경기도 수원시 팔달구 인계동,38586066,1000,50,10,6,3,37.26850256401246,127.02340105095335,2023-11-14T16:46:08+09:00,월세,6
224,https://ic.zigbang.com/ic/items/38856797/1.jpg,분리형원룸.가격좋음. 베란다있음. 주차편리,경기도 수원시 팔달구 인계동,38856797,5000,0,5,6,5,37.268479963448165,127.02400360129464,2023-11-27T12:35:10+09:00,전세,7
225,https://ic.zigbang.com/ic/items/38763612/1.jpg,ll유팰리스  넓은 방ll 전망 좋은 방ll,경기도 수원시 팔달구 매산로2가,38763612,300,47,12,15,고,37.268561575149356,127.00342014951946,2023-11-18T15:21:47+09:00,월세,8
226,https://ic.zigbang.com/ic/items/38770147/1.jpg,ll 초특가 넓은 유팰리스 ll 수원역 3분 ll,경기도 수원시 팔달구 매산로2가,38770147,300,45,10,15,고,37.26902619139573,127.00279607270775,2023-11-19T22:02:54+09:00,월세,8
227,https://ic.zigbang.com/ic/items/38790012/1.jpg,ll 유팰리스 신축 ll6개월 단기가능ll,경기도 수원시 팔달구 매산로2가,38790012,300,50,12,15,고,37.26855966393635,127.00284686834925,2023-11-21T11:31:32+09:00,월세,8
228,https://ic.zigbang.com/ic/items/38807423/1.jpg,ll 신축 유팰리스 ll 최강옵션 스타일러 ll,경기도 수원시 팔달구 매산로2가,38807423,500,45,10,15,중,37.26905853161321,127.00342991797332,2023-11-22T14:26:26+09:00,월세,8
229,https://ic.zigbang.com/ic/items/38810689/1.jpg,진심깔끔...수원역 스타일러까지옵션 시원한 통창,경기도 수원시 팔달구 매산로2가,38810689,300,50,10,15,9,37.269024239020965,127.00344497783574,2023-11-22T16:55:38+09:00,월세,8
230,https://ic.zigbang.com/ic/items/38790305/1.jpg,ㆀ매교역ㆀ코앞ㆀ베란다ㆀ장착ㆀ완료ㆀ,경기도 수원시 팔달구 매교동,38790305,1000,45,6.3,8,4,37.26857758810496,127.01594352292634,2023-11-27T10:38:26+09:00,월세,8
231,https://ic.zigbang.com/ic/items/38795444/1.jpg,"채광GOOD,11꿀매물등장,분당선,SSS급,베란다",경기도 수원시 팔달구 매교동,38795444,1000,45,8,7,4,37.26907399643323,127.01536548005565,2023-11-21T15:42:48+09:00,월세,8
232,https://ic.zigbang.com/ic/items/38781982/1.jpg,O베란다有.3년차신축.애완동물가능.매교역도보O,경기도 수원시 팔달구 매교동,38781982,1000,45,8,8,6,37.26909824016128,127.01594969008295,2023-11-20T16:21:03+09:00,월세,8
233,https://ic.zigbang.com/ic/items/38776399/1.jpg,V MJ스톤 밝은 남향 V밝고 깔끔한 방V,경기도 수원시 팔달구 매산로1가,38776399,300,42,8,14,고,37.26921503361518,127.00231323915648,2023-11-20T12:30:56+09:00,월세,8
234,https://ic.zigbang.com/ic/items/38783640/1.jpg,"고층 남향, 전망좋고 깔끔, 즉시입주",경기도 수원시 팔달구 매산로1가,38783640,500,40,14,14,10,37.26871648,127.00289815220265,2023-11-20T17:27:15+09:00,월세,7
235,https://ic.zigbang.com/ic/items/38807324/1.jpg,정말 깨끗한집. 따뜻한 고층,경기도 수원시 팔달구 매산로1가,38807324,300,42,10,14,고,37.269200662406924,127.00231034778218,2023-11-22T16:54:29+09:00,월세,7
236,https://ic.zigbang.com/ic/items/38823942/1.jpg,고층 막힘없는뷰 수원역 초인접 가성비 끝내주는 방,경기도 수원시 팔달구 매산로1가,38823942,300,42,7.8,14,고,37.268697431650125,127.00231421090973,2023-11-23T17:34:01+09:00,월세,7
237,https://ic.zigbang.com/ic/items/38617178/1.jpg,"mo  풀옵션,주차무료 om",경기도 수원시 팔달구 매산로2가,38617178,300,42,13.9,12,3,37.26943358778008,127.0065819540462,2023-11-06T13:07:52+09:00,월세,7
238,https://ic.zigbang.com/ic/items/38617205/1.jpg,"mo 풀옵션,주차1대무료 om",경기도 수원시 팔달구 매산로2가,38617205,500,40,13.9,12,3,37.268933972817145,127.0071981765375,2023-11-06T13:08:50+09:00,월세,7
239,https://ic.zigbang.com/ic/items/38795314/1.jpg,mo 넓은 원룸 om,경기도 수원시 팔달구 매산로2가,38795314,500,57,21,12,4,37.26893307,127.00656937681995,2023-11-22T12:30:16+09:00,월세,9
240,https://ic.zigbang.com/ic/items/38816049/1.jpg,Oo 전세매물 전입가능 oO,경기도 수원시 팔달구 매산로2가,38816049,5500,0,13.9,12,11,37.26944642496861,127.00658706788064,2023-11-23T11:05:14+09:00,전세,7
241,https://ic.zigbang.com/ic/items/38831324/1.jpg,IIo 수원역 전입불가능 oII,경기도 수원시 팔달구 매산로2가,38831324,300,45,13.9,12,11,37.26945121278273,127.00655826923138,2023-11-24T13:07:00+09:00,월세,7
242,https://ic.zigbang.com/ic/items/38848690/1.jpg,Oo 오피스텔 전입가능 oO,경기도 수원시 팔달구 매산로2가,38848690,500,45,13,12,8,37.26893946122876,127.00718735284129,2023-11-26T12:51:49+09:00,월세,7
243,https://ic.zigbang.com/ic/items/38856958/1.jpg,IIo 수원역 oII 전입불가능 oII,경기도 수원시 팔달구 매산로2가,38856958,500,40,13,12,8,37.268926267494116,127.00718797359411,2023-11-27T12:43:11+09:00,월세,7
244,https://ic.zigbang.com/ic/items/38858380/1.jpg,Oo 전입가능 오피스텔 oO,경기도 수원시 팔달구 매산로2가,38858380,2000,30,13.9,12,11,37.26892214896069,127.00720376330148,2023-11-27T13:44:11+09:00,월세,7
245,https://ic.zigbang.com/ic/items/38516742/1.jpg,ll 단기 1개월 부터 가능 ll  넓은방 ll,경기도 수원시 팔달구 매산로1가,38516742,10,50,8.5,10,8,37.268938222866296,127.00265598612332,2023-10-28T11:22:36+09:00,월세,15
246,https://ic.zigbang.com/ic/items/38651879/1.jpg,IIo 신축 oII 단기 1개월가능,경기도 수원시 팔달구 매산로1가,38651879,10,50,7.3,10,7,37.26893140981724,127.00263444700053,2023-11-27T12:43:54+09:00,월세,15
247,https://ic.zigbang.com/ic/items/38651907/1.jpg,Oo 신축 oO 단기 1개월가능 O,경기도 수원시 팔달구 매산로1가,38651907,10,50,8.5,10,7,37.26896574595123,127.00199880473225,2023-11-20T17:17:05+09:00,월세,15
248,https://ic.zigbang.com/ic/items/38652437/1.jpg,Oo 신축 oO 단기 1개월부터가능,경기도 수원시 팔달구 매산로1가,38652437,10,50,8.2,10,8,37.269452290291866,127.00265867097538,2023-11-20T17:52:30+09:00,월세,15
249,https://ic.zigbang.com/ic/items/38653507/1.jpg,ll신축 단기ll1개월 부터 ll,경기도 수원시 팔달구 매산로1가,38653507,10,50,7.5,10,9,37.268929724892956,127.0026624627177,2023-11-08T22:21:15+09:00,월세,15
250,https://ic.zigbang.com/ic/items/38721541/1.jpg,ll 단기 1개월 부터 가능 ll  넓은방 ll,경기도 수원시 팔달구 매산로1가,38721541,10,50,8,10,8,37.268966694169606,127.00204733335231,2023-11-15T10:40:35+09:00,월세,15
251,https://ic.zigbang.com/ic/items/38832889/1.jpg,"드라마센터, 인계사거리 부근에 있는 분리형 원룸 월세예요",경기도 수원시 팔달구 인계동,38832889,7000,20,10,6,2,37.269454595310656,127.02860990401228,2023-11-24T14:22:22+09:00,월세,7
252,https://ic.zigbang.com/ic/items/38854967/1.jpg,ㆀ단기ㆀ주차ㆀ좋음ㆀ풀옵션ㆀ,경기도 수원시 팔달구 인계동,38854967,100,45,6,4,2,37.268956940382864,127.0293748973792,2023-11-27T11:31:06+09:00,월세,7
253,https://ic.zigbang.com/ic/items/38751184/1.jpg,o인계박스인근o베란다보유o몸만들어오세요,경기도 수원시 팔달구 인계동,38751184,1000,50,6.5,5,5,37.26902740735434,127.02517166712686,2023-11-20T13:41:22+09:00,월세,7
254,https://ic.zigbang.com/ic/items/38473128/1.jpg,인계동.실매물.오픈형원룸8평.,경기도 수원시 팔달구 인계동,38473128,1000,47,7,6,3,37.269513799285924,127.02517778468875,2023-11-11T12:07:32+09:00,월세,10
255,https://ic.zigbang.com/ic/items/38822510/1.jpg,ll 즉 시 입 주 ll 전입 OK ll 단기OK ll,경기도 수원시 팔달구 매산로2가,38822510,200,34,6,8,4,37.26949673,127.00600920945696,2023-11-23T16:28:46+09:00,월세,6
256,https://ic.zigbang.com/ic/items/38670269/1.jpg,V 수원역 단기 원룸 V 가성비 굿 V,경기도 수원시 팔달구 매산로2가,38670269,200,34,5,8,6,37.26903884,127.00539057059193,2023-11-10T12:26:56+09:00,월세,6
257,https://ic.zigbang.com/ic/items/38689386/1.jpg,ll 단기 원룸 ll 전입신고 OK ll,경기도 수원시 팔달구 매산로2가,38689386,200,34,6,8,5,37.269024454873325,127.00539510666208,2023-11-12T16:42:03+09:00,월세,6
258,https://ic.zigbang.com/ic/items/38806765/1.jpg,Oo 수원역 전입가능 인기원룸 oO,경기도 수원시 팔달구 매산로2가,38806765,200,34,6.1,8,6,37.26951186712259,127.0054098574789,2023-11-24T14:20:24+09:00,월세,6
259,https://ic.zigbang.com/ic/items/38807316/1.jpg,Oo 단기가능 전입가능 oO,경기도 수원시 팔달구 매산로2가,38807316,200,34,6.1,8,6,37.269028005386275,127.00542156104784,2023-11-22T14:20:32+09:00,월세,6
260,https://ic.zigbang.com/ic/items/38839440/1.jpg,"vV수원역도보5분,풀옵션,당일입주가능Vv",경기도 수원시 팔달구 매산로2가,38839440,200,34,6,8,4,37.26900621837431,127.00600858000888,2023-11-25T09:55:16+09:00,월세,6
261,https://ic.zigbang.com/ic/items/38631534/1.jpg,Oo 수원역 풀옵션 단기원룸 oO,경기도 수원시 팔달구 매산로2가,38631534,200,34,6.1,8,7,37.26902692469051,127.00600854326355,2023-11-27T13:44:44+09:00,월세,6
262,https://ic.zigbang.com/ic/items/38672802/1.jpg,ll 단기 원룸 전입신고 OK ll 가성비 굿 ll,경기도 수원시 팔달구 매산로2가,38672802,200,34,6,8,4,37.26900873660951,127.00602799327709,2023-11-27T14:15:04+09:00,월세,6
263,https://ic.zigbang.com/ic/items/38699951/1.jpg,"mo  안전한 큰길가,로데오 om",경기도 수원시 팔달구 매산로2가,38699951,200,35,5.4,7,3,37.26952249012583,127.00542166194387,2023-11-13T15:14:13+09:00,월세,6
264,https://ic.zigbang.com/ic/items/38775152/1.jpg,oO청춘Oo .더블역세권.드루와.,경기도 수원시 팔달구 인계동,38775152,500,38,6,5,4,37.269603971798446,127.02512659420326,2023-11-20T11:47:04+09:00,월세,7
265,https://ic.zigbang.com/ic/items/38775971/1.jpg,인계박스상권 도보이용가능 가성비 좋은 원룸,경기도 수원시 팔달구 인계동,38775971,500,38,5.9,5,4,37.26911334482385,127.02574085175735,2023-11-20T12:14:47+09:00,월세,7
266,https://ic.zigbang.com/ic/items/38789790/1.jpg,ㆅ최저가ㆅ시청역ㆅ도보ㆅ가능ㆅ,경기도 수원시 팔달구 인계동,38789790,300,40,5.9,5,4,37.26960980830073,127.02507123062458,2023-11-21T11:24:41+09:00,월세,7
267,https://ic.zigbang.com/ic/items/38597165/1.jpg,"kbs드라마센터 인근 , 즉시입주가능 , 풀옵션 원룸",경기도 수원시 팔달구 인계동,38597165,4000,25,5,5,3,37.26913723938694,127.02879785552302,2023-11-09T17:34:12+09:00,월세,8
268,https://ic.zigbang.com/ic/items/38804020/1.jpg,v전액보증보험v신축풀옵션v테라스v,경기도 수원시 팔달구 인계동,38804020,21000,0,18,5,5,37.26914287468717,127.02943641554111,2023-11-22T11:42:19+09:00,전세,15
269,https://ic.zigbang.com/ic/items/38842508/1.jpg,"보증보험, 15평형투룸, 신축풀옵션",경기도 수원시 팔달구 인계동,38842508,17000,0,9,5,3,37.26910065,127.02882060231894,2023-11-25T12:52:19+09:00,전세,12
270,https://ic.zigbang.com/ic/items/38783688/1.jpg,저렴한고 깔끔한 분리형 원룸,경기도 수원시 팔달구 매산로2가,38783688,300,37,6,7,4,37.26963912265411,127.00532463217195,2023-11-20T17:29:26+09:00,월세,6
271,https://ic.zigbang.com/ic/items/38839446/1.jpg,"vV수원역도보6분,풀옵션,빠른입주Vv",경기도 수원시 팔달구 매산로2가,38839446,300,37,6,7,4,37.26913868469843,127.00531702880016,2023-11-25T12:25:01+09:00,월세,6
272,https://ic.zigbang.com/ic/items/38831249/1.jpg,Oo 주방분리형 전입가능 oO,경기도 수원시 팔달구 매산로2가,38831249,300,37,6.1,7,5,37.269156239460386,127.00592373653073,2023-11-27T12:41:44+09:00,월세,6
273,https://ic.zigbang.com/ic/items/38821971/1.jpg,수원역 안전하고 깔끔한 풀옵션 원룸,경기도 수원시 팔달구 매산로3가,38821971,300,30,5,7,6,37.269359493589256,127.00698742497495,2023-11-23T16:00:39+09:00,월세,6
274,https://ic.zigbang.com/ic/items/38733890/1.jpg,IIwowII 반려동물 입주가능한 완벽분리,경기도 수원시 팔달구 매교동,38733890,9500,0,10,8,6,37.269342841185534,127.01561985976649,2023-11-16T10:21:32+09:00,전세,7
275,https://ic.zigbang.com/ic/items/38715391/1.jpg,....SALE마감임박....,경기도 수원시 팔달구 매교동,38715391,9500,0,10,8,6,37.26985006167381,127.01503928255187,2023-11-14T16:03:54+09:00,전세,7
276,https://ic.zigbang.com/ic/items/38794495/1.jpg,AA 떳다 우리가생각하는 꿀매물채광GOOD,경기도 수원시 팔달구 매교동,38794495,300,50,7,8,4,37.269928659077245,127.01629781631219,2023-11-21T15:01:34+09:00,월세,8
277,https://ic.zigbang.com/ic/items/38724081/1.jpg,ll 실시간 ll 제일큰집,경기도 수원시 팔달구 매교동,38724081,1000,65,11,9,8,37.26996209184812,127.01573419644427,2023-11-15T12:26:33+09:00,월세,10
278,https://ic.zigbang.com/ic/items/38771973/1.jpg,모든공과금 포함 단기 전입 모두 가능한 고층 원룸,경기도 수원시 팔달구 매산로2가,38771973,300,35,6,8,8,37.26951615903852,127.00626350559341,2023-11-20T10:35:32+09:00,월세,12
279,https://ic.zigbang.com/ic/items/38839422/1.jpg,"vV수원역풀옵션,도보7분거리,반전세Vv",경기도 수원시 팔달구 매산로2가,38839422,1000,28,5,8,8,37.26950775864486,127.00627362200922,2023-11-27T10:50:48+09:00,월세,12
280,https://ic.zigbang.com/ic/items/38858358/1.jpg,IIo 전입가능 주차가능 oII,경기도 수원시 팔달구 매산로2가,38858358,200,40,6.1,7,6,37.27004214513876,127.0073043,2023-11-27T13:43:23+09:00,월세,6
281,https://ic.zigbang.com/ic/items/38680803/1.jpg,o0청춘0oㅡ초大형ㅡ방거실분리ㅡ매교역도보5분大ㅡ,경기도 수원시 팔달구 매교동,38680803,2000,65,9,10,6,37.26952203303854,127.01523010479424,2023-11-11T11:33:18+09:00,월세,8
282,https://ic.zigbang.com/ic/items/38855167/1.jpg,ㅁㅁ즉시입주.분리형 1.5룸.전세.반전세 가능,경기도 수원시 팔달구 인계동,38855167,1000,55,5.9,6,4,37.27011344038817,127.0293597163541,2023-11-27T11:36:33+09:00,월세,8
283,https://ic.zigbang.com/ic/items/38632340/1.jpg,9PY안전한집 조용한 위치 분리형 인계동 일점오룸,경기도 수원시 팔달구 인계동,38632340,1000,55,5.9,6,4,37.27011212021364,127.02872347828053,2023-11-10T16:49:08+09:00,월세,10
284,https://ic.zigbang.com/ic/items/38816626/1.jpg,Vv 옥탑로망. 옥상층사용 즉시입주OK,경기도 수원시 팔달구 인계동,38816626,500,48,6,6,옥탑방,37.27013161790907,127.02916804445832,2023-11-23T11:27:33+09:00,월세,10
285,https://ic.zigbang.com/ic/items/38843864/1.jpg,ㅁ 신축 최소단기 ㅁ 채광 좋고 넓은  풀옵션 ㅁ,경기도 수원시 팔달구 고등동,38843864,300,50,7,11,8,37.270158107970644,127.00415547487259,2023-11-25T14:25:32+09:00,월세,12
286,https://ic.zigbang.com/ic/items/38821048/1.jpg,....완벽분리v베란다OK....,경기도 수원시 팔달구 매교동,38821048,4000,43,10,10,4,37.269705171662395,127.01517684928915,2023-11-23T15:16:32+09:00,월세,10
287,https://ic.zigbang.com/ic/items/38840147/1.jpg,II 방1거실1 II 완벽분리 II,경기도 수원시 팔달구 매교동,38840147,4000,43,10,10,4,37.27018082282464,127.01521607723585,2023-11-25T10:38:49+09:00,월세,10
288,https://ic.zigbang.com/ic/items/38580585/1.jpg,ㅊ남향1.5룸 ㅊ전입OKㅊ,경기도 수원시 팔달구 고등동,38580585,1000,65,12,12,9,37.27022806968052,127.00392208938143,2023-11-10T17:04:21+09:00,월세,10
289,https://ic.zigbang.com/ic/items/38633840/1.jpg,"전입가능, 대출없음, 신축2년차 깨끗, 풀옵션, 반전세가능",경기도 수원시 팔달구 고등동,38633840,18000,0,32.3,12,11,37.27022335403229,127.00326366928881,2023-11-07T14:28:19+09:00,전세,15
290,https://ic.zigbang.com/ic/items/38643952/1.jpg,역세권에 전입되고 주차되고 인프라 좋은집,경기도 수원시 팔달구 고등동,38643952,1000,65,18,12,9,37.26970496369512,127.00391695352101,2023-11-15T10:21:58+09:00,월세,10
291,https://ic.zigbang.com/ic/items/38702788/1.jpg,"ㄱㄱ안전한 전세, 근저당 없고 모든 대출 다 가능ㄱㄱ",경기도 수원시 팔달구 고등동,38702788,20000,0,32.3,12,5,37.26970948180289,127.00391610532272,2023-11-13T18:45:09+09:00,전세,15
292,https://ic.zigbang.com/ic/items/38802632/1.jpg,ㅊ즉시입주1.5룸ㅊ전입OKㅊ,경기도 수원시 팔달구 고등동,38802632,500,70,12,12,9,37.26971884725825,127.00326233443957,2023-11-22T10:54:28+09:00,월세,10
293,https://ic.zigbang.com/ic/items/38821148/1.jpg,"넓고 채광좋은 원룸, 저렴한 보증금 및 월세, 즉시입주",경기도 수원시 팔달구 인계동,38821148,300,28,6.7,4,2,37.269743712419384,127.02597928716492,2023-11-23T15:22:27+09:00,월세,5
294,https://ic.zigbang.com/ic/items/38835968/1.jpg,인계동 반달공원옆 채광굿. 올도배 큰평수원룸 바로입주가능,경기도 수원시 팔달구 인계동,38835968,300,28,6.8,4,2,37.27023159661171,127.0253810892599,2023-11-24T16:54:44+09:00,월세,5
295,https://ic.zigbang.com/ic/items/38724007/1.jpg,ㅣ필살기ㅣ무융자ㅣㅣ방거실ㅣ분리ㅣㅣ,경기도 수원시 팔달구 매교동,38724007,500,55,7.8,10,7,37.269753901023236,127.01498750061592,2023-11-15T12:20:54+09:00,월세,8
296,https://ic.zigbang.com/ic/items/38849776/1.jpg,oO청춘Oo V 수원 V No1 V 떳따 V,경기도 수원시 팔달구 매교동,38849776,500,55,6.4,10,3,37.26971852958923,127.01498571116795,2023-11-26T16:11:10+09:00,월세,8
297,https://ic.zigbang.com/ic/items/38391324/1.jpg,w보험대출OKw무융자OKw수원역1.5룸w,경기도 수원시 팔달구 고등동,38391324,13985,0,17.8,13,중,37.27024332897111,127.00399652030636,2023-11-21T11:59:50+09:00,전세,9.5
298,https://ic.zigbang.com/ic/items/38580392/1.jpg,ㅊ수원역ㅊ1.5룸ㅊ,경기도 수원시 팔달구 고등동,38580392,1000,70,15.7,13,중,37.270275294845725,127.0046081653825,2023-11-22T10:54:49+09:00,월세,9.5
299,https://ic.zigbang.com/ic/items/38643146/1.jpg,ㅊ빠른입주ㅊ1.5룸ㅊ전입ok,경기도 수원시 팔달구 고등동,38643146,2000,65,15.7,13,중,37.26975052840023,127.00395912873519,2023-11-08T11:08:16+09:00,월세,9.5
300,https://ic.zigbang.com/ic/items/38692861/1.jpg,ㅊ전입OKㅊ1.5룸ㅊ,경기도 수원시 팔달구 고등동,38692861,2500,60,15.7,13,중,37.27024621797548,127.0045882857143,2023-11-13T10:49:44+09:00,월세,9.5
301,https://ic.zigbang.com/ic/items/38710134/1.jpg,ㅊ전입신고OKㅊ확정일자OKㅊ,경기도 수원시 팔달구 고등동,38710134,8000,35,17.9,13,중,37.26975313088555,127.0045725120566,2023-11-17T11:52:39+09:00,월세,9.5
302,https://ic.zigbang.com/ic/items/38711087/1.jpg,ㅊLHㅊ중기청100ㅊ보증보험 가능 ㅊ,경기도 수원시 팔달구 고등동,38711087,13200,0,17.9,13,중,37.26977022226723,127.00394466055306,2023-11-20T16:30:16+09:00,전세,9.5
303,https://ic.zigbang.com/ic/items/38790830/1.jpg,ㅊ최저가ㅊ보증보험ㅊ수원역2룸ㅊ,경기도 수원시 팔달구 고등동,38790830,16000,0,12.1,13,중,37.27028243436198,127.00398773561574,2023-11-21T11:59:51+09:00,전세,12
304,https://ic.zigbang.com/ic/items/38855405/1.jpg,매교역도보5분 ll 보증보험OK ll 방1거실1,경기도 수원시 팔달구 매교동,38855405,10000,18,5.8,6,5,37.270277170844295,127.01395529922434,2023-11-27T11:42:50+09:00,월세,10
305,https://ic.zigbang.com/ic/items/38738704/1.jpg,IIo 신축 oII 초단기가능 주차가능,경기도 수원시 팔달구 고등동,38738704,300,50,8.8,14,13,37.270309617475895,127.00346171220332,2023-11-24T13:04:24+09:00,월세,13
306,https://ic.zigbang.com/ic/items/38811840/1.jpg,ll 신축 ll 최단기간 인기원룸 ll 완전 풀옵션 ll,경기도 수원시 팔달구 고등동,38811840,300,50,8,14,10,37.26981388987989,127.00282767624452,2023-11-22T17:52:47+09:00,월세,13
307,https://ic.zigbang.com/ic/items/38584320/1.jpg,Oo 신축 oO 수원역 최소단기가능,경기도 수원시 팔달구 고등동,38584320,300,50,8.8,14,14,37.26978896545011,127.00346305641429,2023-11-19T19:34:19+09:00,월세,13
308,https://ic.zigbang.com/ic/items/38637493/1.jpg,ll 신축 최단기간  ll 수원역 5분완전 풀옵션 ll,경기도 수원시 팔달구 고등동,38637493,300,50,8.8,14,11,37.270284054364915,127.00281934877972,2023-11-12T16:41:07+09:00,월세,13
309,https://ic.zigbang.com/ic/items/38689382/1.jpg,ll 신축 ll 최소단기 인기원룸 ll,경기도 수원시 팔달구 고등동,38689382,300,50,8.8,14,13,37.27031292951367,127.00345304526894,2023-11-13T13:02:19+09:00,월세,13
310,https://ic.zigbang.com/ic/items/38696967/1.jpg,ll 신축 ll 최소단기  인기원룸 ll,경기도 수원시 팔달구 고등동,38696967,300,50,8,14,13,37.269803177168185,127.00281919760859,2023-11-15T16:07:00+09:00,월세,13
311,https://ic.zigbang.com/ic/items/38738673/1.jpg,oO 신축 Oo 수원역 최소단기가능,경기도 수원시 팔달구 고등동,38738673,300,50,8.8,14,12,37.26981308266142,127.00345523879302,2023-11-20T17:00:21+09:00,월세,13
312,https://ic.zigbang.com/ic/items/38785220/1.jpg,Oo 신축 oO 수원역 최소단기가능,경기도 수원시 팔달구 고등동,38785220,300,50,8.2,14,13,37.269781993453016,127.00343469595832,2023-11-24T12:43:23+09:00,월세,13
313,https://ic.zigbang.com/ic/items/38859840/1.jpg,1룸.즉시입주.최우선변제 안심매물.베란다.주차가능,경기도 수원시 팔달구 인계동,38859840,400,45,6.5,5,3,37.270275856562534,127.02510737266923,2023-11-27T14:40:48+09:00,월세,3
314,https://ic.zigbang.com/ic/items/38715018/1.jpg,II 매교역5분 II 최저가 II,경기도 수원시 팔달구 매교동,38715018,1000,38,6,9,8,37.26986791613669,127.01545487145073,2023-11-14T16:06:22+09:00,월세,7
315,https://ic.zigbang.com/ic/items/38723330/1.jpg,II 매교역 II 신축급.가성비원룸,경기도 수원시 팔달구 매교동,38723330,1000,38,6,9,8,37.270380064445696,127.01603487513843,2023-11-15T11:47:31+09:00,월세,7
316,https://ic.zigbang.com/ic/items/38822383/1.jpg,"o청춘o매교역세권,,뛰어가자,,준신축",경기도 수원시 팔달구 매교동,38822383,1000,38,6.5,9,8,37.26986615,127.01542972236925,2023-11-23T16:20:03+09:00,월세,7
317,https://ic.zigbang.com/ic/items/38857111/1.jpg,"v구조좋은투룸,매교역도보,시세대비저렴v",경기도 수원시 팔달구 매교동,38857111,1000,70,13,9,4,37.27035548379299,127.0154386728369,2023-11-27T12:50:41+09:00,월세,10
318,https://ic.zigbang.com/ic/items/38355769/1.jpg,Oo신축oO 분리형 단기1개월가능,경기도 수원시 팔달구 매산로2가,38355769,100,60,10,15,14,37.27038147548173,127.00625783638682,2023-11-15T11:47:27+09:00,월세,15
319,https://ic.zigbang.com/ic/items/38355773/1.jpg,Oo신축oO 분리형 단기1개월가능,경기도 수원시 팔달구 매산로2가,38355773,100,60,10,15,14,37.26988083820361,127.00693079621153,2023-11-15T11:46:01+09:00,월세,15
320,https://ic.zigbang.com/ic/items/38662937/1.jpg,한달을 살아도 분위기있게 방 넓어요,경기도 수원시 팔달구 매산로2가,38662937,100,60,10,15,13,37.27038141755204,127.00628340650067,2023-11-15T10:31:42+09:00,월세,15
321,https://ic.zigbang.com/ic/items/38725937/1.jpg,o0청춘0o十1달ok十수원역도보5분十,경기도 수원시 팔달구 매산로2가,38725937,100,60,7,15,7,37.26986076912914,127.0068909797873,2023-11-15T14:08:46+09:00,월세,15
322,https://ic.zigbang.com/ic/items/38824241/1.jpg,ll 신축 ll 단기 1개월 부터 ll 분리형 방 ll,경기도 수원시 팔달구 매산로2가,38824241,100,60,10,15,13,37.27039275202463,127.00625959935793,2023-11-23T17:49:53+09:00,월세,15
323,https://ic.zigbang.com/ic/items/38824252/1.jpg,ㅁ신축ㅁ단기 1개월 부터ㅁ분리형 방ㅁ,경기도 수원시 팔달구 매산로2가,38824252,100,60,10,15,12,37.26989817035911,127.00691788668536,2023-11-23T17:50:26+09:00,월세,15
324,https://ic.zigbang.com/ic/items/38783794/1.jpg,수원역 인근 옵션 원룸 즉시입주,경기도 수원시 팔달구 매산로2가,38783794,300,31,5,7,6,37.269971781021496,127.00756236825997,2023-11-20T17:33:45+09:00,월세,6
325,https://ic.zigbang.com/ic/items/38783834/1.jpg,수원역 인근 풀옵션  원룸,경기도 수원시 팔달구 매산로2가,38783834,300,33,4,9,7,37.27045296036183,127.00754218491421,2023-11-20T17:35:35+09:00,월세,6
326,https://ic.zigbang.com/ic/items/38795375/1.jpg,mo전입 .단기 om,경기도 수원시 팔달구 매산로2가,38795375,300,31,5,9,7,37.27043704180191,127.0075198405238,2023-11-21T15:39:39+09:00,월세,6
327,https://ic.zigbang.com/ic/items/38653511/1.jpg,ll신축 최소 단기ll 수원역 풀옵션 ll,경기도 수원시 팔달구 고등동,38653511,10,50,6.1,15,12,37.26998370376639,127.00403300468837,2023-11-08T22:24:47+09:00,월세,10
328,https://ic.zigbang.com/ic/items/38800075/1.jpg,Oo 신축 oO 수원역 최소단기가능,경기도 수원시 팔달구 고등동,38800075,10,50,6.1,14,14,37.26998293516886,127.00404195497235,2023-11-21T20:35:57+09:00,월세,10
329,https://ic.zigbang.com/ic/items/38783005/1.jpg,ll 신축 최소단기 원룸 ll 완전 풀옵션 ll,경기도 수원시 팔달구 고등동,38783005,300,50,8,9,6,37.269962141067495,127.00409893959501,2023-11-22T17:51:49+09:00,월세,13
330,https://ic.zigbang.com/ic/items/38855642/1.jpg,분리형1.5룸 ㅣ 컨디션굿 ㅣ 테라스있음 ㅣ 저렴한전세,경기도 수원시 팔달구 매교동,38855642,8000,0,10,9,2,37.27000063835994,127.01558918303454,2023-11-27T11:49:49+09:00,전세,8
331,https://ic.zigbang.com/ic/items/38854647/1.jpg,보증보험 가입 가능 o 풀옵션 원룸 o 인계사거리 인근,경기도 수원시 팔달구 인계동,38854647,9900,0,5.8,5,3,37.27002648532851,127.02495715211202,2023-11-27T11:21:25+09:00,전세,16
332,https://ic.zigbang.com/ic/items/38632582/1.jpg,인계동박스 도보10분 장다리로 인근 풀옵션 원룸,경기도 수원시 팔달구 인계동,38632582,1000,63,6.5,7,4,37.27006799930099,127.02689367586034,2023-11-07T13:28:01+09:00,월세,10
333,https://ic.zigbang.com/ic/items/38684692/1.jpg,거실넓은집.깨끗함.방넓음.주차가능.,경기도 수원시 팔달구 인계동,38684692,3000,130,23.2,7,6,37.27055320980231,127.026281,2023-11-11T15:59:50+09:00,월세,15
334,https://ic.zigbang.com/ic/items/38741337/1.jpg,넓은원룸 풀옵션 깨끗함 치안좋음 주변맛집多,경기도 수원시 팔달구 인계동,38741337,1000,63,6.2,7,4,37.27054242573894,127.02627142412923,2023-11-16T16:06:53+09:00,월세,10
335,https://ic.zigbang.com/ic/items/38810306/1.jpg,II화이트톤II 신축급.분리형.풀옵션 II,경기도 수원시 팔달구 인계동,38810306,500,65,6.2,6,4,37.270522469563694,127.02626291322541,2023-11-22T16:38:56+09:00,월세,10
336,https://ic.zigbang.com/ic/items/38856136/1.jpg,II봄날II 햇빛 그 자체 별빛이 내린다,경기도 수원시 팔달구 인계동,38856136,500,65,6.2,7,4,37.27054256744257,127.02687345426911,2023-11-27T12:08:06+09:00,월세,10
337,https://ic.zigbang.com/ic/items/38622343/1.jpg,수원역 인접 깔끔 풀옵션 즉시입주,경기도 수원시 팔달구 고등동,38622343,170,40,6,7,3,37.27061052572303,127.00392879906623,2023-11-08T16:37:35+09:00,월세,12
338,https://ic.zigbang.com/ic/items/38672664/1.jpg,mo 풀옵션 단기가능 om,경기도 수원시 팔달구 고등동,38672664,180,40,6,8,3,37.27060394,127.00329312787676,2023-11-21T15:38:30+09:00,월세,11
339,https://ic.zigbang.com/ic/items/38698474/1.jpg,Oo 단기가능 주차가능 oO,경기도 수원시 팔달구 고등동,38698474,180,40,6.1,7,7,37.27059203174734,127.00393075901296,2023-11-13T14:09:26+09:00,월세,13
340,https://ic.zigbang.com/ic/items/38859621/1.jpg,ll 단기 원룸 ll 완전 풀옵션 깔끔한 방 ll,경기도 수원시 팔달구 고등동,38859621,180,40,6,8,6,37.27060542072197,127.0039193738364,2023-11-27T14:32:35+09:00,월세,12
341,https://ic.zigbang.com/ic/items/38817224/1.jpg,o 단기계약가능 o 매교역근처 o,경기도 수원시 팔달구 매교동,38817224,300,27,5,9,4,37.27011320820447,127.01701357524533,2023-11-23T11:50:49+09:00,월세,6
342,https://ic.zigbang.com/ic/items/38698131/1.jpg,대박1.5룸 l 매교역 l 깔끔깨끗 l 풀옵션,경기도 수원시 팔달구 매교동,38698131,9500,0,9,9,9,37.27060277583324,127.01442142513478,2023-11-13T13:56:03+09:00,전세,8
343,https://ic.zigbang.com/ic/items/38662877/1.jpg,고등동 수원세무서 인근 넓은 쓰리룸 월세 무융자,경기도 수원시 팔달구 고등동,38662877,4000,64,30,4,4,37.27063984801893,127.00650199620014,2023-11-21T12:55:05+09:00,월세,11.5
344,https://ic.zigbang.com/ic/items/38839432/1.jpg,"vV수원역세무서뒤,저렴한풀옵션원룸Vv",경기도 수원시 팔달구 매산로2가,38839432,200,30,5,10,7,37.270165131621845,127.00746184083862,2023-11-25T09:54:56+09:00,월세,9
345,https://ic.zigbang.com/ic/items/38848496/1.jpg,luxury L분리형L교통권최고L빠른입주L,경기도 수원시 팔달구 매교동,38848496,9000,0,9,9,7,37.27018209973484,127.01519152745513,2023-11-26T11:56:10+09:00,전세,8
346,https://ic.zigbang.com/ic/items/38441306/1.jpg,w보증보험OKw대출OK 1.5룸w,경기도 수원시 팔달구 고등동,38441306,13985,0,18.8,13,중,37.270254826890884,127.0032601183315,2023-11-02T12:08:45+09:00,전세,10
347,https://ic.zigbang.com/ic/items/38580779/1.jpg,"II보증보험OkII v귀한B타입v 전입Ok, 대출도Ok",경기도 수원시 팔달구 고등동,38580779,17000,0,23.5,13,2,37.27023849333583,127.00264286338864,2023-11-02T16:10:19+09:00,전세,8
348,https://ic.zigbang.com/ic/items/38696343/1.jpg,전입가능 전세자금대출가능 깔끔한 고층,경기도 수원시 팔달구 고등동,38696343,12000,0,7.4,13,고,37.270715961686406,127.00326470261389,2023-11-15T15:09:00+09:00,전세,10
349,https://ic.zigbang.com/ic/items/38805472/1.jpg,ll 신축 오피스텔 ll  주차 무료 ll,경기도 수원시 팔달구 고등동,38805472,300,52,12.1,13,2,37.27024921434372,127.00264152028487,2023-11-22T12:52:59+09:00,월세,8
350,https://ic.zigbang.com/ic/items/38596874/1.jpg,o0청춘0o 3개월 컨디션 굿 미쳐따 감동실화,경기도 수원시 팔달구 인계동,38596874,100,40,8,5,4,37.27078705,127.0276047294237,2023-11-05T13:06:10+09:00,월세,10
351,https://ic.zigbang.com/ic/items/38804285/1.jpg,十단기十분리형十베란다있음十인계동十,경기도 수원시 팔달구 인계동,38804285,100,40,7,5,2,37.27032054266343,127.02759959892921,2023-11-22T11:52:11+09:00,월세,10
352,https://ic.zigbang.com/ic/items/38812363/1.jpg,oO청춘Oo 인계박스안.베란다.큰집,경기도 수원시 팔달구 인계동,38812363,100,40,7,5,4,37.27078820976706,127.0275919,2023-11-22T18:24:10+09:00,월세,10
353,https://ic.zigbang.com/ic/items/38595696/1.jpg,"3개월,가즈아",경기도 수원시 팔달구 인계동,38595696,100,40,8,5,2,37.27028632419859,127.02759525620176,2023-11-03T17:46:35+09:00,월세,10
354,https://ic.zigbang.com/ic/items/38712209/1.jpg,vV 떳다 II 3개월 II 실매물 II 선착순 Vv,경기도 수원시 팔달구 인계동,38712209,100,40,7,5,2,37.27030918201919,127.02698729315243,2023-11-14T13:40:24+09:00,월세,10
355,https://ic.zigbang.com/ic/items/38838955/1.jpg,oO청춘Ooㅣㄴ.ㅏ.ㅇ.ㅗ.ㅏ.ㄸ.ㅏ.,경기도 수원시 팔달구 인계동,38838955,100,40,7,5,2,37.27082012611708,127.02698899477619,2023-11-25T01:57:56+09:00,월세,10
356,https://ic.zigbang.com/ic/items/38839768/1.jpg,"c청춘cㅣ인계동,단기최강ㅣ",경기도 수원시 팔달구 인계동,38839768,100,40,6.5,5,2,37.27080619395785,127.02699082451699,2023-11-25T10:15:47+09:00,월세,10
357,https://ic.zigbang.com/ic/items/38823710/1.jpg,oo1세대oo최저가oo,경기도 수원시 팔달구 매교동,38823710,500,48,7,9,7,37.270909845181336,127.01494470848075,2023-11-24T17:04:19+09:00,월세,7
358,https://ic.zigbang.com/ic/items/38840031/1.jpg,vv선착순vv1세대vv,경기도 수원시 팔달구 매교동,38840031,500,48,7,9,7,37.27039430631559,127.0155777963354,2023-11-25T10:32:29+09:00,월세,7
359,https://ic.zigbang.com/ic/items/38701684/1.jpg,oo주인세대oo대형평수oo조정가능oo,경기도 수원시 팔달구 매교동,38701684,10000,60,25,8,4,37.270395376243634,127.01529249672495,2023-11-13T16:24:17+09:00,월세,10
360,https://ic.zigbang.com/ic/items/38693093/1.jpg,도배 장판 등 수리 완료,경기도 수원시 팔달구 인계동,38693093,2000,75,18.5,4,2,37.27043649371543,127.02515253286607,2023-11-13T10:55:08+09:00,월세,0
361,https://ic.zigbang.com/ic/items/38805077/1.jpg,"mo  단기6개월부터, 풀옵션 om",경기도 수원시 팔달구 매산로3가,38805077,60,40,6.1,7,6,37.27047420397354,127.01004228910567,2023-11-22T12:31:12+09:00,월세,10
362,https://ic.zigbang.com/ic/items/38662112/1.jpg,V단기 원룸V 주차 가능 V,경기도 수원시 팔달구 매산로3가,38662112,60,40,6.1,7,7,37.270973138201605,127.01065106272327,2023-11-27T14:30:57+09:00,월세,10
363,https://ic.zigbang.com/ic/items/38815975/1.jpg,ㆀ무보증ㆀ최저가ㆀ수원역ㆀ단기가능,경기도 수원시 팔달구 매산로3가,38815975,60,40,7,7,6,37.27044926,127.0106543510272,2023-11-27T15:36:12+09:00,월세,10
364,https://ic.zigbang.com/ic/items/38816593/1.jpg,十十단기十十 전입 모두 가능한 十 꿀매물 十,경기도 수원시 팔달구 매산로3가,38816593,60,40,6,7,3,37.27045569401453,127.01007236626896,2023-11-23T11:26:29+09:00,월세,10
365,https://ic.zigbang.com/ic/items/38648885/1.jpg,0o청춘o0 단기ok.마지막세대,경기도 수원시 팔달구 매산로3가,38648885,60,40,7,7,6,37.27048729349567,127.01069746947049,2023-11-08T15:37:21+09:00,월세,10
366,https://ic.zigbang.com/ic/items/38662335/1.jpg,IIo 단기가능 oII 전입가능 oII,경기도 수원시 팔달구 매산로3가,38662335,60,40,7,7,6,37.27095739838481,127.01064997889641,2023-11-27T13:44:50+09:00,월세,10
367,https://ic.zigbang.com/ic/items/38671088/1.jpg,수원역걸어가자.단기가능.풀옵션,경기도 수원시 팔달구 매산로3가,38671088,60,40,6,7,5,37.27046142163191,127.01006754436858,2023-11-10T13:07:44+09:00,월세,10
368,https://ic.zigbang.com/ic/items/38765607/1.jpg,ll 수원역 단기 분리형 원룸 ll 주차 OK ll,경기도 수원시 팔달구 매산로3가,38765607,60,40,7,7,3,37.270458943967434,127.01069285052073,2023-11-24T14:35:23+09:00,월세,10
369,https://ic.zigbang.com/ic/items/38769793/1.jpg,IIo 단기가능 전입가능 oII,경기도 수원시 팔달구 매산로3가,38769793,60,40,7.3,7,7,37.270458814929626,127.01003302332951,2023-11-22T12:35:22+09:00,월세,10
370,https://ic.zigbang.com/ic/items/38805187/1.jpg,llo 단기가능 전입가능 oll,경기도 수원시 팔달구 매산로3가,38805187,60,40,7,7,6,37.27048903135811,127.01007339950219,2023-11-22T12:37:42+09:00,월세,10
371,https://ic.zigbang.com/ic/items/38805199/1.jpg,IIo 단기가능 전입가능 oII,경기도 수원시 팔달구 매산로3가,38805199,60,40,7.3,7,5,37.27097030277995,127.01003818524464,2023-11-22T12:38:39+09:00,월세,10
372,https://ic.zigbang.com/ic/items/38833301/1.jpg,ll 수원역 단기 원룸 ll 주차 가능 ll,경기도 수원시 팔달구 매산로3가,38833301,60,40,6.5,7,6,37.270959741745195,127.01067615148325,2023-11-27T14:15:08+09:00,월세,10
373,https://ic.zigbang.com/ic/items/38854487/1.jpg,AN888단기6개월부터주방분리형원룸이며 수원역 도보 15분,경기도 수원시 팔달구 매산로3가,38854487,60,40,7.6,7,6,37.27096946734541,127.01068181530876,2023-11-27T11:17:26+09:00,월세,10
374,https://ic.zigbang.com/ic/items/38858938/1.jpg,"mo  풀옵션,  단기가능 om",경기도 수원시 팔달구 매산로3가,38858938,60,40,6.1,7,6,37.27048062779508,127.01005772250727,2023-11-27T14:04:04+09:00,월세,10
375,https://ic.zigbang.com/ic/items/38841983/1.jpg,"vV풀옵션원룬,주방분리형,공실Vv",경기도 수원시 팔달구 매산로3가,38841983,500,43,7,7,3,37.27098854,127.00979810327732,2023-11-25T12:18:17+09:00,월세,5
376,https://ic.zigbang.com/ic/items/38854379/1.jpg,"AN999주차가능및애견가능주방분리형원룸수원역13분거리,",경기도 수원시 팔달구 매산로3가,38854379,300,37,6,7,3,37.270474978920056,127.00916393517957,2023-11-27T11:15:18+09:00,월세,8
377,https://ic.zigbang.com/ic/items/38777231/1.jpg,ㆀ매교역ㆀ주방ㆀ분리ㆀ풀옵션ㆀ,경기도 수원시 팔달구 매교동,38777231,300,47,6.1,8,3,37.27052489856224,127.01699831468888,2023-11-23T17:19:09+09:00,월세,6.5
378,https://ic.zigbang.com/ic/items/38664480/1.jpg,oO청춘Oo  주..차..끝  bb 컨..디..션 끝bb,경기도 수원시 팔달구 인계동,38664480,500,60,8,5,3,37.270620265085164,127.0286508317574,2023-11-09T17:55:16+09:00,월세,10
379,https://ic.zigbang.com/ic/items/38678246/1.jpg,인계동 1.5룸 l 풀옵션 l 채광 맛집 l 예쁜 인테리어,경기도 수원시 팔달구 인계동,38678246,500,60,8,5,3,37.27110613992004,127.02865798124223,2023-11-10T20:03:47+09:00,월세,10
380,https://ic.zigbang.com/ic/items/38824730/1.jpg,oO청춘Oo  인계동 인기매물 금방나가요 진짜로,경기도 수원시 팔달구 인계동,38824730,500,60,10,5,3,37.27110223181077,127.02926140597818,2023-11-23T18:17:34+09:00,월세,10
381,https://ic.zigbang.com/ic/items/38708220/1.jpg,드라마센터 부근에 있는 럭셔리 원룸이예요,경기도 수원시 팔달구 인계동,38708220,500,60,10,5,3,37.27063075339932,127.02863481153226,2023-11-24T13:59:02+09:00,월세,10
382,https://ic.zigbang.com/ic/items/38761479/1.jpg,2층 방2 도배 장판 욕실타일교체 융자무 즉시입주 채광좋음,경기도 수원시 영통구 매탄동,38761479,8000,0,14,3,2,37.270656916149356,127.04596590448374,2023-11-23T11:30:01+09:00,전세,0
383,https://ic.zigbang.com/ic/items/38306795/1.jpg,Vv방1거실1.진짜선착순.채광GOOD,경기도 수원시 팔달구 매교동,38306795,200,65,7.5,10,3,37.270700795315534,127.01467529001441,2023-11-11T15:50:03+09:00,월세,10
384,https://ic.zigbang.com/ic/items/38692800/1.jpg,十단기 선착순十 완벽분리 十 단기 十 첫입주 十,경기도 수원시 팔달구 매교동,38692800,200,65,7.8,10,3,37.27122008705987,127.01466555050115,2023-11-13T10:48:05+09:00,월세,10
385,https://ic.zigbang.com/ic/items/38693625/1.jpg,ㆅ지나가면ㆅ후회ㆅ애견가능ㆅ꿀매물ㆅ즉시입주ㆅ,경기도 수원시 팔달구 매교동,38693625,200,65,8,10,2,37.27120397685764,127.01529653781444,2023-11-13T11:10:36+09:00,월세,10
386,https://ic.zigbang.com/ic/items/38794888/1.jpg,"11월꿀매물떳다,완벽분리,반려동물OK",경기도 수원시 팔달구 매교동,38794888,200,65,9,10,6,37.27121815562811,127.01471330099322,2023-11-21T15:17:37+09:00,월세,10
387,https://ic.zigbang.com/ic/items/38795475/1.jpg,"S급원하고 동물까지키운다,여깄습니다",경기도 수원시 팔달구 매교동,38795475,200,65,9.5,10,3,37.271206853286714,127.01528110887301,2023-11-21T15:44:03+09:00,월세,10
388,https://ic.zigbang.com/ic/items/38801692/1.jpg,o0청춘0o완벽분리형.신축.보증금조정ok,경기도 수원시 팔달구 매교동,38801692,200,65,7.6,10,8,37.27068524987453,127.01528431173567,2023-11-22T10:29:19+09:00,월세,10
389,https://ic.zigbang.com/ic/items/38854451/1.jpg,"AN222베란다분리형다세대주택원룸수원역12분거리,주차가능",경기도 수원시 팔달구 매산로3가,38854451,300,41,6.5,5,2,37.27071602620784,127.00829495378281,2023-11-27T11:16:30+09:00,월세,7
390,https://ic.zigbang.com/ic/items/38839417/1.jpg,"vV풀옵션원룸,수원역도보8분,베란다Vv",경기도 수원시 팔달구 매산로3가,38839417,300,42,6,5,4,37.27122306106374,127.00829061847492,2023-11-25T09:54:00+09:00,월세,6
391,https://ic.zigbang.com/ic/items/38854118/1.jpg,ㅣ최저가ㅣ매교역ㅣ풀옵션ㅣGooD,경기도 수원시 팔달구 매교동,38854118,500,45,7.5,9,5,37.27124948592513,127.01590421105037,2023-11-27T11:09:03+09:00,월세,6
392,https://ic.zigbang.com/ic/items/38821677/1.jpg,oO청춘Ooㅣ v 분리형 v 개방감 MAX v,경기도 수원시 팔달구 매교동,38821677,500,45,6,9,5,37.27075894650365,127.01649291821137,2023-11-23T15:47:30+09:00,월세,6
393,https://ic.zigbang.com/ic/items/38840085/1.jpg,..나와따..공주방..,경기도 수원시 팔달구 매교동,38840085,500,45,7.5,9,5,37.271246744962845,127.01589716252234,2023-11-25T10:35:59+09:00,월세,6
394,https://ic.zigbang.com/ic/items/38574405/1.jpg,II반전세가능II안심투룸II전세권설정가능II임대인실거주II,경기도 수원시 팔달구 인계동,38574405,16000,0,15,7,6,37.27146055,127.02942546521115,2023-11-18T13:22:57+09:00,전세,10
395,https://ic.zigbang.com/ic/items/38652098/1.jpg,1.전입신고가능 2.낭만테라스 3.수원역역세권,경기도 수원시 팔달구 고등동,38652098,2000,60,10,5,4,37.27146021744893,127.00608127459465,2023-11-15T18:13:32+09:00,월세,8
396,https://ic.zigbang.com/ic/items/38854504/1.jpg,"AN999넓은테라스있는신축1.5룸,수원역12분,주차가능",경기도 수원시 팔달구 고등동,38854504,2000,60,9.1,5,4,37.27097800976755,127.00547851939845,2023-11-27T11:17:49+09:00,월세,8
397,https://ic.zigbang.com/ic/items/38581604/1.jpg,수원시청역도보5분ㅣ인계동 l 공세권ㅣ맥세권,경기도 수원시 팔달구 인계동,38581604,2000,22,6,6,2,37.27144538,127.03407978522405,2023-11-14T13:43:08+09:00,월세,8
398,https://ic.zigbang.com/ic/items/38830539/1.jpg,"풀옵션 원룸, 맥도날드, 청소년문화공원 인근",경기도 수원시 팔달구 인계동,38830539,2000,22,7,6,2,37.27098282471252,127.03471773523393,2023-11-24T14:33:16+09:00,월세,8
399,https://ic.zigbang.com/ic/items/38858599/1.jpg,1룸.즉시입주.환한 공원뷰.취사시설X,경기도 수원시 팔달구 인계동,38858599,300,33,4.6,6,1,37.271479629196804,127.03469561013333,2023-11-27T13:52:03+09:00,월세,7
400,https://ic.zigbang.com/ic/items/38560958/1.jpg,1.5룸형 넓은 침실과 거실분리 주차편리,경기도 수원시 팔달구 매산로3가,38560958,500,57,12,6,5,37.271078853411005,127.00914550367543,2023-11-01T13:22:51+09:00,월세,6
401,https://ic.zigbang.com/ic/items/38702695/1.jpg,수원역 넓은 1.5룸 사진보다 실물이 넓고 깔끔한집,경기도 수원시 팔달구 매산로3가,38702695,500,57,12,6,5,37.27157367467512,127.00851226433218,2023-11-22T14:21:48+09:00,월세,6
402,https://ic.zigbang.com/ic/items/38854272/1.jpg,"AN880주차가능.1인거주저렴한투룸,수원역도보12분거리위치",경기도 수원시 팔달구 매산로3가,38854272,500,45,7.6,4,2,37.27111419576933,127.00839763024307,2023-11-27T11:12:43+09:00,월세,3
403,https://ic.zigbang.com/ic/items/38712272/1.jpg,침실.주방.거실 분리형ㅣ넓은평수ㅣ전세도가능ㅣ즉시입주,경기도 수원시 팔달구 인계동,38712272,2000,55,8.5,5,3,37.27115870879888,127.02641285371257,2023-11-14T13:43:11+09:00,월세,13
404,https://ic.zigbang.com/ic/items/38832253/1.jpg,••인계박스 가까운 분리형1.5룸 귀한월세매물••,경기도 수원시 팔달구 인계동,38832253,2000,55,9,5,3,37.27116496827727,127.02642518610787,2023-11-27T10:29:01+09:00,월세,13
405,https://ic.zigbang.com/ic/items/38593278/1.jpg,드라마 센터 부근에 있는 깨끗한 원룸이예요,경기도 수원시 팔달구 인계동,38593278,8500,0,8,5,4,37.27197101120091,127.0289899,2023-11-24T12:17:15+09:00,전세,7
406,https://ic.zigbang.com/ic/items/38733786/1.jpg,LEAD.  몸만오면 되는 완전 풀옵션,경기도 수원시 팔달구 인계동,38733786,100,50,7,3,1,37.27199564,127.03539539618068,2023-11-16T10:16:39+09:00,월세,10
407,https://ic.zigbang.com/ic/items/38824310/1.jpg,oO청춘Oo No.1 단기 BEST,경기도 수원시 팔달구 인계동,38824310,100,50,7,3,2,37.27147401276523,127.03474467729637,2023-11-24T17:04:05+09:00,월세,12
408,https://ic.zigbang.com/ic/items/38793682/1.jpg,oO청춘Oo 인계동.탁월한.초이스,경기도 수원시 팔달구 인계동,38793682,100,55,6,3,1,37.27151803040819,127.03537145099368,2023-11-21T14:26:04+09:00,월세,10
409,https://ic.zigbang.com/ic/items/38813142/1.jpg,oO청춘Oo  귀한 단기매물 서두르세요,경기도 수원시 팔달구 인계동,38813142,100,50,7,3,1,37.27199794860891,127.0347443602047,2023-11-22T19:55:02+09:00,월세,10
410,https://ic.zigbang.com/ic/items/38683010/1.jpg,1. 대형2룸 2. 월세가능 3. 전세대출,경기도 수원시 팔달구 인계동,38683010,14000,0,12,7,6,37.27160135786819,127.02748962235172,2023-11-25T12:06:58+09:00,전세,13
411,https://ic.zigbang.com/ic/items/38617249/1.jpg,"mo  풀옵션,  전입 om",경기도 수원시 팔달구 교동,38617249,300,33,4.3,5,3,37.27223275861662,127.01344460924123,2023-11-06T13:10:24+09:00,월세,7
412,https://ic.zigbang.com/ic/items/38638980/1.jpg,O매교역도보O준신축O분리형O베란다O,경기도 수원시 팔달구 교동,38638980,300,33,7,5,4,37.272242089638226,127.01341159752536,2023-11-25T19:10:26+09:00,월세,7
413,https://ic.zigbang.com/ic/items/38845470/1.jpg,o 팔달문 o 수원역 o 행궁동 o,경기도 수원시 팔달구 교동,38845470,300,33,6,5,4,37.27172987420066,127.01340746068385,2023-11-25T16:11:31+09:00,월세,7
414,https://ic.zigbang.com/ic/items/38835776/1.jpg,법원사거리옆 베란다o LH가능 남향집 쾌적한 원룸,경기도 수원시 영통구 매탄동,38835776,12000,0,6,4,3,37.271768634578976,127.04555353388926,2023-11-24T16:46:22+09:00,전세,8
415,https://ic.zigbang.com/ic/items/38846646/1.jpg,oRun 아주대도보가능 LH가능 원룸o,경기도 수원시 영통구 매탄동,38846646,12000,0,8,5,3,37.271766426640504,127.04492402816328,2023-11-25T17:50:21+09:00,전세,8
416,https://ic.zigbang.com/ic/items/38718640/1.jpg,햇빛좋고 럭셔리한 큰방,경기도 수원시 영통구 매탄동,38718640,10000,0,10,4,2,37.27224129322911,127.04554687678691,2023-11-14T18:38:00+09:00,전세,8
417,https://ic.zigbang.com/ic/items/38796497/1.jpg,늧은밤에도 안전하고 베란다 있는 큰 원룸,경기도 수원시 영통구 매탄동,38796497,11000,0,10,5,2,37.271779444729944,127.04551518018201,2023-11-21T16:33:01+09:00,전세,8
418,https://ic.zigbang.com/ic/items/38614934/1.jpg,댕댕이가능o All리모델링o 남향채광굿o 선착순o,경기도 수원시 영통구 매탄동,38614934,1500,60,13,4,4,37.272459162464514,127.04479771987172,2023-11-06T11:38:08+09:00,월세,10
419,https://ic.zigbang.com/ic/items/38636388/1.jpg,반려동물 가능 l 리모델링 O l 보증금up월세down가능,경기도 수원시 영통구 매탄동,38636388,1500,60,13,4,4,37.271985538846835,127.04477687255434,2023-11-07T16:25:05+09:00,월세,10
420,https://ic.zigbang.com/ic/items/38664141/1.jpg,반려동물가능o리모델링OKo남향채광굿o보증금증액가능,경기도 수원시 영통구 매탄동,38664141,1500,60,13,4,4,37.27246789599843,127.04475473139166,2023-11-09T17:32:28+09:00,월세,10
421,https://ic.zigbang.com/ic/items/38682946/1.jpg,"고양이와함께가능,대출가능,풀옵션,깔끔한인테리어 2룸",경기도 수원시 영통구 매탄동,38682946,1500,60,12,4,4,37.27198130228461,127.04416938924442,2023-11-11T13:49:35+09:00,월세,10
422,https://ic.zigbang.com/ic/items/38721162/1.jpg,법원사거리 갓성비 화이트톤 넓은 주방분리형 원룸,경기도 수원시 영통구 매탄동,38721162,500,38,6,4,3,37.27198053001238,127.04417339087192,2023-11-15T10:25:00+09:00,월세,7
423,https://ic.zigbang.com/ic/items/38725091/1.jpg,"o아주대,아주대병원 근처 리모델링투룸o",경기도 수원시 영통구 매탄동,38725091,1500,60,12,4,4,37.272496843988606,127.04477656148775,2023-11-15T13:25:30+09:00,월세,10
424,https://ic.zigbang.com/ic/items/38803401/1.jpg,매탄동 깔끔한 풀옵션 투룸 반려동물 가능,경기도 수원시 영통구 매탄동,38803401,1500,60,14,4,4,37.27198849772652,127.04479149819306,2023-11-22T12:19:06+09:00,월세,10
425,https://ic.zigbang.com/ic/items/38760067/1.jpg,II 정류장30초 II 최저가 II,경기도 수원시 팔달구 교동,38760067,1000,50,8,5,3,37.272013535029295,127.0150868553943,2023-11-18T11:32:23+09:00,월세,6.5
426,https://ic.zigbang.com/ic/items/38816130/1.jpg,oO청춘Oo  깔끔한 분리형 찾으시면 바로 이거,경기도 수원시 팔달구 교동,38816130,1000,50,8,5,3,37.27246590547542,127.01507857229862,2023-11-23T11:08:39+09:00,월세,6.5
427,https://ic.zigbang.com/ic/items/38817207/1.jpg,l 방.거실.분리형ㅣ너.로.정.했.다ㅣ압도적ㅣ당일마감예상ㅣ,경기도 수원시 팔달구 교동,38817207,1000,50,8,5,3,37.27200124374469,127.01446715044423,2023-11-23T11:49:53+09:00,월세,6.5
428,https://ic.zigbang.com/ic/items/38755311/1.jpg,II 대로변 II 올리모델링 1.5룸 II,경기도 수원시 팔달구 교동,38755311,1000,50,8,5,3,37.271992581800454,127.0151080896877,2023-11-17T17:27:03+09:00,월세,6.5
429,https://ic.zigbang.com/ic/items/38760205/1.jpg,OO꿀매물OO 전입신고 가능 중문분리,경기도 수원시 팔달구 교동,38760205,1000,50,8,5,3,37.27200692801374,127.01443360281783,2023-11-18T11:38:19+09:00,월세,6.5
430,https://ic.zigbang.com/ic/items/38579914/1.jpg,oO청춘Oo  귀하고 귀한 복층 집 보면 백프로 만족,경기도 수원시 영통구 매탄동,38579914,3000,38,9,6,3,37.27248629828904,127.04543547104528,2023-11-02T15:35:11+09:00,월세,8
431,https://ic.zigbang.com/ic/items/38841344/1.jpg,준신축 깔끔 복층 l 컨디션 최상 l 전세가능 O,경기도 수원시 영통구 매탄동,38841344,4000,32,6,6,3,37.272013313019634,127.04543748271988,2023-11-25T11:41:35+09:00,월세,8
432,https://ic.zigbang.com/ic/items/38805356/1.jpg,"가성비 끝판왕, 풀옵션 원룸, 청소년문화공원 인근",경기도 수원시 팔달구 인계동,38805356,200,34,6,3,1,37.27200251166825,127.03708996233466,2023-11-24T14:32:34+09:00,월세,6
433,https://ic.zigbang.com/ic/items/38855754/1.jpg,"AN111준신축깔끔한투룸,부분옵션,베란다있음,수원역12분",경기도 수원시 팔달구 매산로3가,38855754,3000,55,12.1,4,3,37.27205596453177,127.00971583666708,2023-11-27T11:53:58+09:00,월세,7
434,https://ic.zigbang.com/ic/items/38672469/1.jpg,아주대삼거리 갓성비 테라스o 주방분리형 원,경기도 수원시 영통구 매탄동,38672469,2500,22,6,4,3,37.27263733164924,127.0415392467958,2023-11-10T14:24:43+09:00,월세,6
435,https://ic.zigbang.com/ic/items/38801824/1.jpg,퀄리티 좋은 초저렴 단기매물 매교역 수원역가기좋아요,경기도 수원시 팔달구 구천동,38801824,100,39,4.5,6,3,37.27217631556842,127.01702627079177,2023-11-22T10:28:57+09:00,월세,7
436,https://ic.zigbang.com/ic/items/38745918/1.jpg,1.보증보험전액가입 2.공원뷰 3.안전한집,경기도 수원시 팔달구 인계동,38745918,10000,9,7,7,3,37.272374162150015,127.02994863639474,2023-11-20T15:47:52+09:00,월세,12
437,https://ic.zigbang.com/ic/items/38740086/1.jpg,아주대삼거리대로변에서구매탄시장방향,경기도 수원시 영통구 매탄동,38740086,6500,0,7,3,1,37.27292126307836,127.04289042245178,2023-11-16T15:06:49+09:00,전세,3
438,https://ic.zigbang.com/ic/items/38781641/1.jpg,oO청춘Ooㅡ.방..ㅣ..거실..ㅡ..베란다..l..최저가,경기도 수원시 팔달구 교동,38781641,3000,28,6.1,9,4,37.27264644264583,127.01531381804845,2023-11-20T16:09:50+09:00,월세,6
439,https://ic.zigbang.com/ic/items/38798200/1.jpg,방...거실.........분리형 나와따,경기도 수원시 팔달구 교동,38798200,3000,28,7,9,4,37.273156990184454,127.0153093,2023-11-21T17:42:56+09:00,월세,6
440,https://ic.zigbang.com/ic/items/38844697/1.jpg,oo청춘oo수원역oo10분oo빨리왕oo,경기도 수원시 팔달구 교동,38844697,1000,50,7,9,3,37.27315157066839,127.01533314763468,2023-11-25T15:18:51+09:00,월세,6
441,https://ic.zigbang.com/ic/items/38851282/1.jpg,실매물.  거실十방十베란다.수원역10분.풀옵션,경기도 수원시 팔달구 교동,38851282,500,50,6,9,3,37.273141934471035,127.0159165740562,2023-11-27T09:26:38+09:00,월세,6
442,https://ic.zigbang.com/ic/items/38605948/1.jpg,아주대삼거리대로변에서 구매탄시장방향,경기도 수원시 영통구 매탄동,38605948,2500,15,5,4,3,37.273183588670946,127.04441836459634,2023-11-16T11:53:28+09:00,월세,6
443,https://ic.zigbang.com/ic/items/38854140/1.jpg,"AN987착한금액쓰리룸,도배등새로해줌,주차가능,수원역18분",경기도 수원시 팔달구 고등동,38854140,500,50,13.6,3,1,37.272825039867875,127.00859181222071,2023-11-27T11:09:32+09:00,월세,0
444,https://ic.zigbang.com/ic/items/38783556/1.jpg,깔끔한원룸o  최상급시설o  깨끗한집o,경기도 수원시 영통구 매탄동,38783556,500,30,4.5,4,2,37.27339850226528,127.04252913772078,2023-11-25T17:28:23+09:00,월세,10
445,https://ic.zigbang.com/ic/items/38814507/1.jpg,"남향창,서향베란다 채광환기 아주대삼거리대로변 구매탄시장방향",경기도 수원시 영통구 매탄동,38814507,500,35,6,4,2,37.27292567881719,127.0425112699604,2023-11-23T10:02:58+09:00,월세,5
446,https://ic.zigbang.com/ic/items/38854403/1.jpg,AN885상시주차백프로풀옵션원룸전입가능휴게실있음,경기도 수원시 팔달구 고등동,38854403,300,30,5.5,4,4,37.27349198784867,127.00710539236856,2023-11-27T11:15:41+09:00,월세,7
447,https://ic.zigbang.com/ic/items/38851480/1.jpg,신축원룸 아주대삼거리대로변에서 구매탄시장정문방향,경기도 수원시 영통구 매탄동,38851480,8000,0,8,4,1,37.27298322066689,127.04189097465822,2023-11-27T09:46:48+09:00,전세,7
448,https://ic.zigbang.com/ic/items/38776029/1.jpg,인계동 경수대로인근 즉시입주 풀옵션원룸,경기도 수원시 팔달구 인계동,38776029,500,40,7,4,3,37.27299075092133,127.0286728383652,2023-11-20T12:16:52+09:00,월세,7
449,https://ic.zigbang.com/ic/items/38712865/1.jpg,리모델링원룸 주방분리형아주대삼거리대로변에서구매탄시장후문방향,경기도 수원시 영통구 매탄동,38712865,500,40,8,3,1,37.27356069,127.0439261592697,2023-11-16T11:53:37+09:00,월세,5
450,https://ic.zigbang.com/ic/items/38835811/1.jpg,께끗한 분리형 원룸,경기도 수원시 팔달구 인계동,38835811,300,34,8,4,2,37.27362890090742,127.02839464633658,2023-11-24T16:48:02+09:00,월세,6
451,https://ic.zigbang.com/ic/items/38857777/1.jpg,000 바로 입주가능 0 깔끔 밝은 풀옵션 000,경기도 수원시 팔달구 인계동,38857777,300,34,6,4,2,37.273595052295754,127.02843601746224,2023-11-27T15:23:49+09:00,월세,6
452,https://ic.zigbang.com/ic/items/38846686/1.jpg,oRun 나혼자산다 단독왕테라스 준신축원룸o,경기도 수원시 영통구 매탄동,38846686,10000,25,13,4,4,37.27316079,127.04507009469462,2023-11-25T17:53:37+09:00,월세,7
453,https://ic.zigbang.com/ic/items/38847393/1.jpg,넓은 테라스 l 바베큐파티O l 신축풀옵션o,경기도 수원시 영통구 매탄동,38847393,12000,0,6.8,4,4,37.27316722266429,127.04509096718027,2023-11-25T19:42:11+09:00,전세,7
454,https://ic.zigbang.com/ic/items/38761394/1.jpg,분리형ㅣ안전한.월세ㅣ주차가능ㅣ바로입주가능,경기도 수원시 팔달구 인계동,38761394,3000,55,10,7,6,37.27369622549819,127.01984267586376,2023-11-18T12:56:17+09:00,월세,9
455,https://ic.zigbang.com/ic/items/38797187/1.jpg,분리형 넓은집 거실있고 채광 좋은집,경기도 수원시 팔달구 인계동,38797187,2000,60,7,7,6,37.27371550017692,127.01922479146741,2023-11-21T16:58:34+09:00,월세,9
456,https://ic.zigbang.com/ic/items/38852784/1.jpg,o신축급1.8룸o대형평수o아파트생활권,경기도 수원시 팔달구 인계동,38852784,2000,60,9,7,6,37.27368583425114,127.01923231466229,2023-11-27T10:33:42+09:00,월세,9
457,https://ic.zigbang.com/ic/items/38806276/1.jpg,아주대 삼거리 매탄동 올리모델링 풀옵션 곧나감,경기도 수원시 영통구 매탄동,38806276,300,40,8,3,1,37.27378487671982,127.04319877471552,2023-11-22T13:32:00+09:00,월세,5
458,https://ic.zigbang.com/ic/items/38354483/1.jpg,인계동 삼성생명과 LIG생명 부근에 있는 분리형 원룸이예요,경기도 수원시 팔달구 인계동,38354483,100,45,8,5,5,37.27331537,127.03119676026168,2023-11-14T10:52:37+09:00,월세,6
459,https://ic.zigbang.com/ic/items/38718809/1.jpg,단기가능방따로주방따로깔끔한컨디션kbs근처,경기도 수원시 팔달구 인계동,38718809,100,40,7,5,5,37.27378724138885,127.0305512786343,2023-11-14T18:50:45+09:00,월세,6
460,https://ic.zigbang.com/ic/items/38773264/1.jpg,oO청춘Ooㅣ단기6개월OKㅣ공원앞 ㅣ놓치기전 ㅣ갯ㅣ,경기도 수원시 팔달구 인계동,38773264,300,47,4.7,5,5,37.273812685535624,127.03059929130622,2023-11-20T10:59:05+09:00,월세,6
461,https://ic.zigbang.com/ic/items/38655370/1.jpg,VvvV 6개월단기 베란다호실 즉시입주 조용한주택가,경기도 수원시 팔달구 인계동,38655370,100,43,4.2,5,5,37.273288066242365,127.03121285616082,2023-11-23T11:29:20+09:00,월세,6
462,https://ic.zigbang.com/ic/items/38668356/1.jpg,실매물. 단기OK.주방분리형.바로앞정류장,경기도 수원시 팔달구 인계동,38668356,100,43,6.1,5,3,37.273807286097856,127.03118781807669,2023-11-10T11:01:00+09:00,월세,6
463,https://ic.zigbang.com/ic/items/38801848/1.jpg,단기임대가능한 분리형원룸 가성비최고,경기도 수원시 팔달구 인계동,38801848,100,43,4.7,5,5,37.27330685368842,127.03059474458303,2023-11-22T10:29:47+09:00,월세,6
464,https://ic.zigbang.com/ic/items/38859375/1.jpg,조용한곳 단기6개월,경기도 수원시 팔달구 인계동,38859375,200,45,4.7,5,5,37.273292828340864,127.03120318585458,2023-11-27T14:27:06+09:00,월세,6
465,https://ic.zigbang.com/ic/items/38508165/1.jpg,1.5룸ㅣ풀옵션ㅣ전세도가능ㅣ바로입주가능,경기도 수원시 팔달구 구천동,38508165,3000,35,7,9,7,37.27380946343624,127.0175978377549,2023-10-30T11:37:29+09:00,월세,8
466,https://ic.zigbang.com/ic/items/38595176/1.jpg,oO청춘Oo 채광 끝판왕bb 분리형bb,경기도 수원시 팔달구 구천동,38595176,2700,38,8,9,7,37.27330215,127.01697073708041,2023-11-03T17:18:25+09:00,월세,8
467,https://ic.zigbang.com/ic/items/38723541/1.jpg,ㄱㅖㅖㅖ약률100프로...최우선변제,경기도 수원시 팔달구 구천동,38723541,2700,38,8,9,3,37.273806667140875,127.01763458006957,2023-11-15T11:57:09+09:00,월세,8
468,https://ic.zigbang.com/ic/items/38855823/1.jpg,ㅁㅁ보증금안전.최우선변제.수원남문.분리형1.5룸 풀옵션,경기도 수원시 팔달구 구천동,38855823,2700,38,9,8,7,37.27378757360558,127.0170103477089,2023-11-27T11:56:24+09:00,월세,8
469,https://ic.zigbang.com/ic/items/38530942/1.jpg,방1거실1ㅣ보증금조정가능ㅣ컨디션굿ㅣ신축급,경기도 수원시 팔달구 구천동,38530942,3000,45,8,9,7,37.27380667358066,127.01772484805201,2023-10-30T12:28:42+09:00,월세,8
470,https://ic.zigbang.com/ic/items/38661309/1.jpg,Luxury ll 분리형 넓은 ll 밝은 인테리어 ll전입,경기도 수원시 팔달구 구천동,38661309,3000,45,9,9,7,37.27331634795897,127.01772481912761,2023-11-10T18:25:02+09:00,월세,8
471,https://ic.zigbang.com/ic/items/38841975/1.jpg,II봄날II 무융자 안전하고 자신있고 산뜻하게,경기도 수원시 팔달구 구천동,38841975,1000,60,8,9,4,37.273311382905696,127.0171497431028,2023-11-25T12:17:59+09:00,월세,8
472,https://ic.zigbang.com/ic/items/38747551/1.jpg,인계동 청소년문화공원 인근 풀옵션 원룸 12월초 입주,경기도 수원시 팔달구 인계동,38747551,200,47,5,5,2,37.27383862,127.03101973088995,2023-11-17T11:26:05+09:00,월세,7
473,https://ic.zigbang.com/ic/items/38820871/1.jpg,oo3룸화2oo허그보증보험oo대출가능oo,경기도 수원시 팔달구 중동,38820871,16000,0,18,7,7,37.27336898881446,127.01741432814764,2023-11-23T16:20:10+09:00,전세,12
474,https://ic.zigbang.com/ic/items/38822126/1.jpg,oo허그보증oo매교역oo버팀목가능oo,경기도 수원시 팔달구 중동,38822126,15900,0,18,7,4,37.27384967655634,127.01736539054923,2023-11-23T16:07:52+09:00,전세,12
475,https://ic.zigbang.com/ic/items/38841526/1.jpg,보증보험ok 쓰리룸 전세가 가격 너무 착해요,경기도 수원시 팔달구 중동,38841526,16000,0,14.9,7,7,37.273360351669126,127.01675951618255,2023-11-25T11:52:54+09:00,전세,12
476,https://ic.zigbang.com/ic/items/38494241/1.jpg,"운동장만한,Park세권,주방분리 원룸",경기도 수원시 영통구 매탄동,38494241,3000,25,6,4,4,37.27384953,127.04084008744522,2023-11-03T16:20:21+09:00,월세,6
477,https://ic.zigbang.com/ic/items/38647487/1.jpg,실매물. 놓치면 후회할 집,경기도 수원시 팔달구 구천동,38647487,300,67,9,9,4,37.27384902769917,127.01847065683482,2023-11-08T14:36:32+09:00,월세,8
478,https://ic.zigbang.com/ic/items/38787575/1.jpg,Oo청춘oO ㅣ여기요ㅣ여기예요ㅣ,경기도 수원시 팔달구 중동,38787575,3000,48,8,10,5,37.27335985662184,127.01658344685177,2023-11-21T10:08:49+09:00,월세,8
479,https://ic.zigbang.com/ic/items/38772976/1.jpg,아주대삼거리대로변에서 구매탄시장방향,경기도 수원시 영통구 매탄동,38772976,500,35,6,4,3,37.27386339,127.04215187215298,2023-11-20T10:51:08+09:00,월세,5
480,https://ic.zigbang.com/ic/items/38661984/1.jpg,ㅁKINGㅁ 깨끗 V 월세좋음 V 풀옵션,경기도 수원시 영통구 매탄동,38661984,300,33,5,4,2,37.27389381860247,127.04220693613581,2023-11-09T15:47:11+09:00,월세,7
481,https://ic.zigbang.com/ic/items/38861520/1.jpg,o아주대부근 귀한 전세원룸 ㄷH출불가o,경기도 수원시 영통구 매탄동,38861520,5000,0,8,4,3,37.27389908719036,127.0428384,2023-11-27T15:47:19+09:00,전세,7
482,https://ic.zigbang.com/ic/items/38788520/1.jpg,주방분리 아주대삼거리대로변에서 구매탄시장후문방향,경기도 수원시 영통구 매탄동,38788520,5000,0,6,4,3,37.273895302990546,127.04283463989569,2023-11-21T10:43:23+09:00,전세,6
483,https://ic.zigbang.com/ic/items/38850416/1.jpg,oO청춘Oo  교통 최고 인프라 최고 구천동 갓성비,경기도 수원시 팔달구 구천동,38850416,200,65,7,9,2,37.27337988657939,127.01811487837905,2023-11-26T19:14:06+09:00,월세,8
484,https://ic.zigbang.com/ic/items/38775009/1.jpg,l 방.거실.따로ㅣ너.로.정.했.다ㅣ매교역세권ㅣ당일마감ㅣ,경기도 수원시 팔달구 구천동,38775009,2000,40,8,9,8,37.273450175747186,127.01794458465463,2023-11-20T11:42:13+09:00,월세,12
485,https://ic.zigbang.com/ic/items/38781303/1.jpg,ㅣ분리형ㅣ공.주.방ㅣ햇살가득ㅣ정남향ㅣ베란다ㅣ,경기도 수원시 팔달구 구천동,38781303,2000,40,8,9,6,37.273427288131614,127.01859526819415,2023-11-20T16:01:26+09:00,월세,12
486,https://ic.zigbang.com/ic/items/38671199/1.jpg,vV 갓성비 II 풀옵션 II 선착순 Vv,경기도 수원시 팔달구 중동,38671199,500,50,7,9,3,37.27397212452778,127.01653928699618,2023-11-10T13:14:29+09:00,월세,7
487,https://ic.zigbang.com/ic/items/38702323/1.jpg,o0청춘0o V 방 V 거실 따로 V,경기도 수원시 팔달구 중동,38702323,500,50,7,9,7,37.27397977727731,127.01655356247537,2023-11-13T18:21:08+09:00,월세,7
488,https://ic.zigbang.com/ic/items/38714864/1.jpg,o0청춘0o특.급.신.축.바로입주.오케이,경기도 수원시 팔달구 중동,38714864,300,52,6,9,7,37.27398082,127.01651444243801,2023-11-14T15:40:16+09:00,월세,7
489,https://ic.zigbang.com/ic/items/38717099/1.jpg,o청춘o ㅣ아기ㅣ자기ㅣ분리형ㅣ,경기도 수원시 팔달구 중동,38717099,300,52,6.5,8,7,37.27399095035616,127.01715193695338,2023-11-14T17:18:41+09:00,월세,7
490,https://ic.zigbang.com/ic/items/38737882/1.jpg,o0청춘0o l 이동네 최저가 l 일단보세요 l,경기도 수원시 팔달구 중동,38737882,300,52,6,9,6,37.27397552178317,127.0171408,2023-11-16T13:14:45+09:00,월세,7
491,https://ic.zigbang.com/ic/items/38781270/1.jpg,ㅣ청춘분리형ㅣ방ㅣ거실ㅣ신축ㅣ교통최고ㅣ,경기도 수원시 팔달구 중동,38781270,3000,35,7,9,5,37.27398244866417,127.01716795940243,2023-11-20T15:54:51+09:00,월세,8
492,https://ic.zigbang.com/ic/items/38815284/1.jpg,vV II 안전매물 II 풀옵션 II 클릭클릭 II Vv,경기도 수원시 팔달구 구천동,38815284,3000,32,7.5,9,2,37.27351001789238,127.01741247795988,2023-11-23T10:32:47+09:00,월세,8
493,https://ic.zigbang.com/ic/items/38859557/1.jpg,풀옵션ㅣ월세조정가능ㅣ조용한주택가ㅣ컨디션최고,경기도 수원시 팔달구 구천동,38859557,3000,32,7,9,2,37.273511324200555,127.01804914990304,2023-11-27T14:30:34+09:00,월세,8
494,https://ic.zigbang.com/ic/items/38645296/1.jpg,ㅣ최우선변제금ㅣ전입OKㅣ완전풀옵션ㅣ즉시입주ㅣ,경기도 수원시 팔달구 구천동,38645296,2000,51,8,9,6,37.27354560607107,127.01826918687087,2023-11-08T12:50:49+09:00,월세,8
495,https://ic.zigbang.com/ic/items/38737922/1.jpg,"아주대학교 삼거리, 대중교통 편리, 조용한 환경, 저렴월세",경기도 수원시 영통구 매탄동,38737922,1000,25,4.6,4,1,37.274058034122945,127.04406167327173,2023-11-16T13:16:27+09:00,월세,7
496,https://ic.zigbang.com/ic/items/38574700/1.jpg,교통좋은 신축 채광좋아요,경기도 수원시 팔달구 중동,38574700,1000,53,7,9,4,37.27355881473632,127.0173468883549,2023-11-08T15:10:45+09:00,월세,8
497,https://ic.zigbang.com/ic/items/38577940/1.jpg,oO청춘Oo II 갓성비 II 풀옵션 II 빼엠 II,경기도 수원시 팔달구 중동,38577940,500,55,7,10,3,37.273590549870995,127.01671849207838,2023-11-02T14:08:14+09:00,월세,8
498,https://ic.zigbang.com/ic/items/38666040/1.jpg,ForYou 가성비최강l보증금조정가능l깔끔깨끗,경기도 수원시 팔달구 중동,38666040,1000,53,8,10,4,37.27355789681166,127.01735532295783,2023-11-23T19:46:03+09:00,월세,8
499,https://ic.zigbang.com/ic/items/38694368/1.jpg,Oo청춘oO ㅣ더ㅣ블ㅣ역ㅣ세ㅣ권 ㅣo분o리o형o구o조o,경기도 수원시 팔달구 중동,38694368,200,65,9,9,2,37.27361366942556,127.0171438013772,2023-11-13T11:32:18+09:00,월세,8
500,https://ic.zigbang.com/ic/items/38694882/1.jpg,oO청춘Oo 컨.디.션. 끝판왕..bb분리형 매물...bb,경기도 수원시 팔달구 중동,38694882,200,65,9,9,2,37.273615475899206,127.01651875967929,2023-11-13T11:46:53+09:00,월세,8
501,https://ic.zigbang.com/ic/items/38782020/1.jpg,"v단기가능,방1거실1풀옵션,5년차신축,딱한세대v",경기도 수원시 팔달구 중동,38782020,200,65,8,9,3,37.27410243312507,127.01652118381651,2023-11-20T16:22:08+09:00,월세,8
502,https://ic.zigbang.com/ic/items/38801918/1.jpg,고급진디자인 단기계약가능매물 서두르세요,경기도 수원시 팔달구 중동,38801918,200,65,8.5,9,4,37.27362916,127.01714968403661,2023-11-22T10:31:37+09:00,월세,8
503,https://ic.zigbang.com/ic/items/38837602/1.jpg,ㆀ깔끄미ㆀ화이트톤ㆀ취향저격ㆀ,경기도 수원시 팔달구 구천동,38837602,500,53,8,9,2,37.27412970081093,127.01836246833452,2023-11-27T15:34:33+09:00,월세,9
504,https://ic.zigbang.com/ic/items/38860518/1.jpg,Oㅣ풀.옵.션ㅣ최.저.가ㅣ화이트톤ㅣ1등집ㅣO,경기도 수원시 팔달구 구천동,38860518,1000,56,8,9,5,37.274130853348936,127.01774494265608,2023-11-27T15:06:58+09:00,월세,9
505,https://ic.zigbang.com/ic/items/38848488/1.jpg,luxury十완벽분리형十교통권최고十즉시입주十,경기도 수원시 팔달구 구천동,38848488,8000,0,11.1,9,3,37.27367885792834,127.01794713513048,2023-11-26T11:55:24+09:00,전세,8
506,https://ic.zigbang.com/ic/items/38848493/1.jpg,luxury L분리형L교통권최고L즉시입주L,경기도 수원시 팔달구 구천동,38848493,5000,28,12,9,3,37.27416380100236,127.0179599666579,2023-11-26T11:55:50+09:00,월세,8
507,https://ic.zigbang.com/ic/items/38355505/1.jpg,ㅁKINGㅁ 단기환영 V 유월웰컴 V 엘베있음,경기도 수원시 영통구 매탄동,38355505,100,38,5.5,4,2,37.27368131685458,127.04417614762465,2023-11-10T14:09:54+09:00,월세,9
508,https://ic.zigbang.com/ic/items/38663727/1.jpg,채광좋은o최우선변재금o안전매물o엘베OKo아주대삼거리,경기도 수원시 영통구 매탄동,38663727,2000,20,5,7,4,37.27373347285487,127.04447296174156,2023-11-09T17:13:23+09:00,월세,7
509,https://ic.zigbang.com/ic/items/38836338/1.jpg,LINE l 엘베있는 가성비원룸 풀옵션 위치좋은집 l,경기도 수원시 영통구 매탄동,38836338,2000,20,6,7,4,37.27419999016499,127.04505499429835,2023-11-24T17:10:51+09:00,월세,7
510,https://ic.zigbang.com/ic/items/38853948/1.jpg,아주대 도보 가능.가성비 갑. 풀옵션,경기도 수원시 영통구 매탄동,38853948,2000,20,6,7,4,37.274192786359244,127.04446997447158,2023-11-27T12:01:36+09:00,월세,7
511,https://ic.zigbang.com/ic/items/38801840/1.jpg,가성비탑원룸 보증금조정도 가능,경기도 수원시 팔달구 중동,38801840,100,35,5.4,6,4,37.27380639783122,127.01649990594069,2023-11-22T10:29:31+09:00,월세,5
512,https://ic.zigbang.com/ic/items/38754235/1.jpg,"주방분리,베란다 아주대삼거리대로변에서구매탄시장방향",경기도 수원시 영통구 매탄동,38754235,500,42,9,3,2,37.27378240076834,127.04176567767058,2023-11-17T16:42:08+09:00,월세,3
513,https://ic.zigbang.com/ic/items/38673047/1.jpg,ㅁKINGㅁ  짠구조 V 좋음 V 월세좋음,경기도 수원시 영통구 매탄동,38673047,500,38,6,4,2,37.27438515,127.0420248206997,2023-11-10T14:55:18+09:00,월세,5
514,https://ic.zigbang.com/ic/items/38692875/1.jpg,아주대삼거리대로변에서 구매탄시장방향,경기도 수원시 영통구 매탄동,38692875,500,42,8.2,4,3,37.27399016185758,127.0425963806979,2023-11-27T09:32:17+09:00,월세,3
515,https://ic.zigbang.com/ic/items/38854292/1.jpg,"AN111대출가능,베란다있는깔끔한투룸,수원역15분,주차가능",경기도 수원시 팔달구 고등동,38854292,9500,0,12.1,4,3,37.27449855769697,127.00494893585747,2023-11-27T11:13:21+09:00,전세,0
516,https://ic.zigbang.com/ic/items/38812518/1.jpg,十최저가十 단기 十 매교역 수원역 十 가깝당 十,경기도 수원시 팔달구 구천동,38812518,200,40,7,7,4,37.27464598540591,127.01693823429412,2023-11-22T18:37:43+09:00,월세,6
517,https://ic.zigbang.com/ic/items/38794552/1.jpg,S급깔끔하고 고급스러운방 찾는분,경기도 수원시 팔달구 구천동,38794552,300,67,8.5,9,5,37.27465531205084,127.01753011005968,2023-11-21T15:03:25+09:00,월세,8
518,https://ic.zigbang.com/ic/items/38801136/1.jpg,"Super II대형원룸十풀옵션 II 보증금조정,전입신고II",경기도 수원시 팔달구 구천동,38801136,1000,80,10,8,8,37.27418128188212,127.01812375659905,2023-11-22T09:57:52+09:00,월세,9
519,https://ic.zigbang.com/ic/items/38254659/1.jpg,....I.am 최저가에요...,경기도 수원시 팔달구 구천동,38254659,6000,0,6.5,9,8,37.274279131032884,127.01750899529655,2023-10-28T10:21:10+09:00,전세,6.5
520,https://ic.zigbang.com/ic/items/38598950/1.jpg,실매물.  고민하면 늦는 집,경기도 수원시 팔달구 구천동,38598950,500,45,7,9,4,37.27429708004499,127.01812750655004,2023-11-04T10:26:34+09:00,월세,6.5
521,https://ic.zigbang.com/ic/items/38681151/1.jpg,ㆅ화이트톤ㆅ취향저격ㆅ풀옵션ㆅ원룸ㆅ,경기도 수원시 팔달구 구천동,38681151,2700,30,7,9,8,37.27476271890538,127.01752180359632,2023-11-11T11:52:36+09:00,월세,6.5
522,https://ic.zigbang.com/ic/items/38830900/1.jpg,II 신축급원룸 II 초특가 가성비1등 II,경기도 수원시 팔달구 구천동,38830900,500,45,6.5,9,8,37.27477020589631,127.01754262155346,2023-11-24T12:31:23+09:00,월세,6.5
523,https://ic.zigbang.com/ic/items/38860552/1.jpg,ㅣ최저가ㅣ풀옵션ㅣ선착순ㅣ1등ㅣ,경기도 수원시 팔달구 구천동,38860552,500,45,7,9,8,37.274293796561125,127.01813416151579,2023-11-27T15:08:01+09:00,월세,6.5
524,https://ic.zigbang.com/ic/items/38834735/1.jpg,l 초.필.살.기.ㅣ방 거실 분리형ㅣ압도적ㅣ당일마감예상ㅣ,경기도 수원시 팔달구 구천동,38834735,500,55,8,10,2,37.27436860941109,127.01835955660255,2023-11-24T15:54:17+09:00,월세,8
525,https://ic.zigbang.com/ic/items/38684375/1.jpg,ㅣ청춘ㅣ1등ㅣ분리형ㅣ선착순ㅣ,경기도 수원시 팔달구 구천동,38684375,500,55,8,10,3,37.27434890887915,127.0183471083072,2023-11-11T15:34:27+09:00,월세,8
526,https://ic.zigbang.com/ic/items/38839377/1.jpg,vV전기세만내세요.채광좋음Vv,경기도 수원시 팔달구 고등동,38839377,100,25,4,3,반지하,37.27492908143634,127.00705596068208,2023-11-25T09:51:56+09:00,월세,8
527,https://ic.zigbang.com/ic/items/38854356/1.jpg,"AN789주방분리형원룸,전세대출가능,리모델링함,수원역18분",경기도 수원시 팔달구 고등동,38854356,5000,0,7.6,3,1,37.27504170560753,127.00795772377148,2023-11-27T11:14:51+09:00,전세,0
528,https://ic.zigbang.com/ic/items/38821153/1.jpg,oVo.금.방 . 빠.져.요oVo,경기도 수원시 팔달구 구천동,38821153,500,45,7,9,4,37.27507881449066,127.01757583090982,2023-11-23T15:22:48+09:00,월세,6.5
529,https://ic.zigbang.com/ic/items/38840016/1.jpg,II 교통GOOD II 주방분리형 II,경기도 수원시 팔달구 구천동,38840016,500,45,6,9,8,37.27459254687796,127.01757947268645,2023-11-25T10:31:39+09:00,월세,6.5
530,https://ic.zigbang.com/ic/items/38515881/1.jpg,...I.am 1위에요....,경기도 수원시 팔달구 구천동,38515881,400,56,7,10,3,37.27462834262593,127.01735943435605,2023-10-28T10:09:59+09:00,월세,7
531,https://ic.zigbang.com/ic/items/38733749/1.jpg,실매물.  가성비甲.주방분리.풀옵션,경기도 수원시 팔달구 구천동,38733749,300,57,9,10,3,37.27460864242455,127.01734182619155,2023-11-16T10:14:47+09:00,월세,8
532,https://ic.zigbang.com/ic/items/38840087/1.jpg,II 신축급 II TOP1 II,경기도 수원시 팔달구 구천동,38840087,500,55,7.5,10,2,37.275102544641115,127.01797359515477,2023-11-25T10:36:07+09:00,월세,7
533,https://ic.zigbang.com/ic/items/38835360/1.jpg,II햇살가득2룸II넓은안방II광합성가능II위치최상급II,경기도 수원시 팔달구 인계동,38835360,10000,50,18,7,6,37.274611283830474,127.02841243714767,2023-11-24T16:36:42+09:00,월세,10
534,https://ic.zigbang.com/ic/items/38777339/1.jpg,O성빈센트병원O분리형O풀수납O,경기도 수원시 팔달구 인계동,38777339,500,30,7,3,3,37.27469018002554,127.02663696948287,2023-11-25T19:10:19+09:00,월세,4
535,https://ic.zigbang.com/ic/items/38723791/1.jpg,인계동 동수원사거리 인근 풀옵션 원룸 12월입주,경기도 수원시 팔달구 인계동,38723791,500,45,6.1,10,2,37.275176078047764,127.02859747922508,2023-11-15T12:08:49+09:00,월세,6.5
536,https://ic.zigbang.com/ic/items/38697893/1.jpg,빈센트병원 인근 인기많은 방,경기도 수원시 팔달구 인계동,38697893,2000,35,6,10,2,37.27571838083375,127.02754936460238,2023-11-13T13:45:10+09:00,월세,7
537,https://ic.zigbang.com/ic/items/38736796/1.jpg,II 가성비1등 II 성빈센트 II 주방분리원룸 II,경기도 수원시 팔달구 인계동,38736796,3000,25,6,10,2,37.275743263743934,127.02819525542718,2023-11-16T12:17:21+09:00,월세,7
538,https://ic.zigbang.com/ic/items/38620016/1.jpg,ㅁKINGㅁ 빅찬스 V 월세좋음 V 인기건물,경기도 수원시 영통구 원천동,38620016,500,40,6,4,3,37.275772540971474,127.04436618549202,2023-11-06T15:21:55+09:00,월세,5
539,https://ic.zigbang.com/ic/items/38620197/1.jpg,ㅁKINGㅁ 아주대원룸 V 수납짱 V 특별기회,경기도 수원시 영통구 원천동,38620197,500,38,7,7,3,37.27578637,127.04499693180229,2023-11-06T15:14:15+09:00,월세,7
540,https://ic.zigbang.com/ic/items/38374037/1.jpg,1.5룸 입주조정 교통 좋아요,경기도 수원시 팔달구 인계동,38374037,2000,50,7,8,4,37.275281199959075,127.02854384921078,2023-11-08T15:11:09+09:00,월세,7.5
541,https://ic.zigbang.com/ic/items/38682504/1.jpg,ㅁㅁ즉시입주.에어컨2대.동수원사거리.투룸월세,경기도 수원시 팔달구 인계동,38682504,2000,70,15,9,3,37.27580565761476,127.02789792543719,2023-11-11T13:20:41+09:00,월세,8.5
542,https://ic.zigbang.com/ic/items/38776609/1.jpg,구조 잘빠진 착한가격 투룸 즉시입주가능,경기도 수원시 팔달구 인계동,38776609,2000,70,14,9,3,37.275283123527416,127.0285602706674,2023-11-21T10:23:54+09:00,월세,8.5
543,https://ic.zigbang.com/ic/items/38711569/1.jpg,ㅁ넓은분리형 화이트톤 깔끔원룸 풀옵션ㅁ,경기도 수원시 팔달구 인계동,38711569,1000,40,7,10,8,37.275343816721914,127.02812709992223,2023-11-15T12:08:13+09:00,월세,7
544,https://ic.zigbang.com/ic/items/38806626/1.jpg,가성비 매물ㅣ동수원사거리 인근ㅣ대중교통 이용 좋음,경기도 수원시 팔달구 인계동,38806626,1000,40,7,10,8,37.275334108433206,127.02752413318319,2023-11-22T13:48:41+09:00,월세,7
545,https://ic.zigbang.com/ic/items/38648090/1.jpg,전세 반전세 가능 빈센트병원 인근,경기도 수원시 팔달구 인계동,38648090,2000,35,6,9,8,37.27581180712681,127.0275127,2023-11-08T15:04:39+09:00,월세,7
